"latitude","longitude","name","country","refcode"
24.4330005645752,54.6511001586914,"Abu Dhabi International Airport","AE","OMAA"
24.4283008575439,54.4580993652344,"Bateen Airport","AE","OMAD"
24.2616996765137,55.6091995239258,"Al Ain International Airport","AE","OMAL"
24.2481994629,54.5476989746,"Al Dhafra Air Base","AE","OMAM"
24.283611,52.580278,"Sir Bani Yas Airport","AE","OMBY"
25.2527999878,55.3643989563,"Dubai International Airport","AE","OMDB"
25.0268001556,55.3661994934,"Al Minhad Air Base","AE","OMDM"
24.896356,55.161389,"Al Maktoum International Airport","AE","OMDW"
25.1121997833252,56.3240013122559,"Fujairah International Airport","AE","OMFJ"
25.6135005950928,55.9388008117676,"Ras Al Khaimah International Airport","AE","OMRK"
25.3285999298096,55.5172004699707,"Sharjah International Airport","AE","OMSJ"
33.284605,69.80734,"Khost International Airport (U.C.)","AF","AF-0005"
34.2099990844727,62.2282981872559,"Herat Airport","AF","OAHR"
34.9460983276,69.2649993896,"Bagram Air Base","AF","OAIX"
34.3997993469238,70.4985961914062,"Jalalabad Airport","AF","OAJL"
34.565899,69.212303,"Hamid Karzai International Airport","AF","OAKB"
31.5058002471924,65.8478012084961,"Kandahar Airport","AF","OAKN"
35.9308013916016,64.7609024047852,"Maimana Airport","AF","OAMN"
36.706901550293,67.2097015380859,"Mazar I Sharif Airport","AF","OAMS"
36.6651000976562,68.9107971191406,"Konduz Airport","AF","OAUZ"
17.1367,-61.792702,"V.C. Bird International Airport","AG","TAPA"
18.2048,-63.055099,"Clayton J Lloyd International Airport","AI","TQPF"
42.0336990356,20.4158992767,"Kukës Airport","AL","LAKU"
40.771900177002,19.9018993377686,"Kuçovë Air Base","AL","LAKV"
41.4146995544,19.7206001282,"Tirana International Airport Mother Teresa","AL","LATI"
40.4761009216309,19.4741992950439,"Vlorë Air Base","AL","LAVL"
40.7504005432,43.8592987061,"Gyumri Shirak Airport","AM","UDSG"
40.1221008301,44.4650001526,"Erebuni Airport","AM","UDYE"
40.1473007202,44.3959007263,"Zvartnots International Airport","AM","UDYZ"
39.8240013123,45.6739997864,"Dzhermuk Airport","AM","UGEJ"
-6.26989984512329,14.2469997406006,"Mbanza Congo Airport","AO","FNBC"
-12.609000206,13.4036998749,"Benguela Airport","AO","FNBG"
-5.59699010848999,12.1884002685547,"Cabinda Airport","AO","FNCA"
-12.4792,13.4869,"Catumbela Airport","AO","FNCT"
-7.40088987350464,20.8185005187988,"Dundo Airport","AO","FNDU"
-17.0435009003,15.6837997437,"Ngjiva Pereira Airport","AO","FNGI"
-12.8088998794556,15.7604999542236,"Nova Lisboa Airport","AO","FNHU"
-12.404600143433,16.947399139404,"Kuito Airport","AO","FNKU"
-8.85837,13.2312,"Quatro de Fevereiro Airport","AO","FNLU"
-9.52509021759033,16.3124008178711,"Malanje Airport","AO","FNMA"
-14.657600402832,17.7198009490967,"Menongue Airport","AO","FNME"
-15.2611999511719,12.1468000411987,"Namibe Airport","AO","FNMO"
-7.75450992584229,15.2876996994019,"Negage Airport","AO","FNNG"
-10.7220001220703,13.7655000686646,"Porto Amboim Airport","AO","FNPA"
-9.6890697479248,20.4319000244141,"Saurimo Airport","AO","FNSA"
-6.14108991622925,12.3718004226685,"Soyo Airport","AO","FNSO"
-11.1679000854492,13.8474998474121,"Sumbe Airport","AO","FNSU"
-14.9246997833252,13.5749998092651,"Lubango Airport","AO","FNUB"
-11.7680997848511,19.8976993560791,"Luena Airport","AO","FNUE"
-7.60306978225708,15.0277996063232,"Uige Airport","AO","FNUG"
-16.7553997039795,14.9652996063232,"Xangongo Airport","AO","FNXA"
-77.8539962768555,166.468994140625,"McMurdo Station Ice Runway","AQ","NZIR"
-77.9634017944336,166.524993896484,"McMurdo Station Pegasus Field","AQ","NZPG"
-90,0,"South Pole Station Airport","AQ","NZSP"
-77.8674011230469,167.057006835938,"Williams Field","AQ","NZWD"
-31.2969,-57.9966,"Comodoro Pierrestegui Airport","AR","SAAC"
-33.0103,-58.6131,"Gualeguaychu Airport","AR","SAAG"
-31.7948,-60.4804,"General Urquiza Airport","AR","SAAP"
-32.9036,-60.785,"Islas Malvinas Airport","AR","SAAR"
-31.7117,-60.8117,"Sauce Viejo Airport","AR","SAAV"
-34.5592,-58.4156,"Jorge Newbery Airpark","AR","SABE"
-31.323601,-64.208,"Ingeniero Ambrosio Taravella Airport","AR","SACO"
-34.4532,-58.5896,"San Fernando Airport","AR","SADF"
-34.9722,-57.8947,"La Plata Airport","AR","SADL"
-34.6099,-58.6126,"El Palomar Airport","AR","SADP"
-34.8222,-58.5358,"Ministro Pistarini International Airport","AR","SAEZ"
-37.3905982971,-68.9041976929,"Rincon De Los Sauces Airport","AR","SAHS"
-38.975498,-70.113602,"Zapala Airport","AR","SAHZ"
-32.8316993713,-68.7929000854,"El Plumerillo Airport","AR","SAME"
-35.493598938,-69.5743026733,"Comodoro D.R. Salomón Airport","AR","SAMM"
-34.588299,-68.4039,"Suboficial Ay Santiago Germano Airport","AR","SAMR"
-28.5956001282,-65.751701355,"Catamarca Airport","AR","SANC"
-27.7655563354,-64.3099975586,"Vicecomodoro Angel D. La Paz Aragonés Airport","AR","SANE"
-29.3815994263,-66.7957992554,"Capitan V A Almonacid Airport","AR","SANL"
-27.4966,-64.93595,"Termas de Río Hondo international Airport","AR","SANR"
-26.8409,-65.104897,"Teniente Benjamin Matienzo Airport","AR","SANT"
-31.571501,-68.418198,"Domingo Faustino Sarmiento Airport","AR","SANU"
-33.0850982666,-64.2612991333,"Area De Material Airport","AR","SAOC"
-31.9451999664,-65.1463012695,"Villa Dolores Airport","AR","SAOD"
-33.7299003601,-65.3873977661,"Villa Reynolds Airport","AR","SAOR"
-33.2732009888,-66.3563995361,"Brigadier Mayor D Cesar Raul Ojeda Airport","AR","SAOU"
-32.3201,-63.22663,"Presidente Néstor Kirchner Regional Airport","AR","SAOV"
-27.4455,-58.7619,"Corrientes Airport","AR","SARC"
-27.45,-59.0561,"Resistencia International Airport","AR","SARE"
-26.2127,-58.2281,"Formosa Airport","AR","SARF"
-25.737301,-54.4734,"Cataratas Del Iguazú International Airport","AR","SARI"
-29.6894,-57.1521,"Paso De Los Libres Airport","AR","SARL"
-30.2719,-57.6402,"Monte Caseros Airport","AR","SARM"
-27.3858,-55.9707,"Libertador Gral D Jose De San Martin Airport","AR","SARP"
-24.8560009003,-65.4861984253,"Martin Miguel De Guemes International Airport","AR","SASA"
-24.392799,-65.097801,"Gobernador Horacio Guzman International Airport","AR","SASJ"
-23.1527996063,-64.3292007446,"Orán Airport","AR","SASO"
-22.619600296,-63.7937011719,"General Enrique Mosconi Airport","AR","SAST"
-29.1058,-59.2189,"Goya Airport","AR","SATG"
-29.2103,-59.68,"Reconquista Airport","AR","SATR"
-29.7706,-57.9789,"Curuzu Cuatia Airport","AR","SATU"
-41.9431991577,-71.5323028564,"El Bolson Airport","AR","SAVB"
-45.7853,-67.4655,"General E. Mosconi Airport","AR","SAVC"
-42.908000946,-71.139503479,"Brigadier Antonio Parodi Airport","AR","SAVE"
-46.5382995605,-68.9653015137,"Las Heras Airport","AR","SAVH"
-43.2105,-65.2703,"Almirante Marco Andres Zar Airport","AR","SAVT"
-40.8692,-63.0004,"Gobernador Castello Airport","AR","SAVV"
-42.7592,-65.1027,"El Tehuelche Airport","AR","SAVY"
-50.2803,-72.053101,"El Calafate Airport","AR","SAWC"
-47.7353,-65.9041,"Puerto Deseado Airport","AR","SAWD"
-53.7777,-67.7494,"Hermes Quijada International Airport","AR","SAWE"
-51.6089,-69.3126,"Piloto Civil N. Fernández Airport","AR","SAWG"
-54.8433,-68.2958,"Malvinas Argentinas Airport","AR","SAWH"
-49.3068,-67.8026,"Capitan D Daniel Vazquez Airport","AR","SAWJ"
-46.537899,-70.978699,"Perito Moreno Airport","AR","SAWP"
-50.0165,-68.5792,"Santa Cruz Airport","AR","SAWU"
-38.725,-62.1693,"Comandante Espora Airport","AR","SAZB"
-35.6962013245,-63.7583007812,"General Pico Airport","AR","SAZG"
-38.3869,-60.3297,"Tres Arroyos Airport","AR","SAZH"
-36.5423,-56.7218,"Santa Teresita Airport","AR","SAZL"
-37.9342,-57.5733,"Ástor Piazzola International Airport","AR","SAZM"
-38.949001,-68.155701,"Presidente Peron Airport","AR","SAZN"
-38.4831,-58.8172,"Necochea Airport","AR","SAZO"
-35.8446,-61.8576,"Comodoro Pedro Zanni Airport","AR","SAZP"
-36.588299,-64.275703,"Santa Rosa Airport","AR","SAZR"
-41.151199,-71.157501,"San Carlos De Bariloche Airport","AR","SAZS"
-37.2374000549,-59.2279014587,"Héroes De Malvinas Airport","AR","SAZT"
-37.2354,-57.0292,"Villa Gesell Airport","AR","SAZV"
-38.9397010803,-69.2646026611,"Cutral-Co Airport","AR","SAZW"
-40.075401,-71.137299,"Aviador C. Campos Airport","AR","SAZY"
-14.2172,-169.425003,"Fitiuta Airport","AS","NSFQ"
-14.3310003281,-170.710006714,"Pago Pago International Airport","AS","NSTU"
47.8432998657227,16.2600994110107,"Wiener Neustadt East Airport","AT","LOAN"
46.9911003112793,15.4395999908447,"Graz Airport","AT","LOWG"
47.260201,11.344,"Innsbruck Airport","AT","LOWI"
46.642502,14.3377,"Klagenfurt Airport","AT","LOWK"
48.2332,14.1875,"Linz Hörsching Airport","AT","LOWL"
47.7933006287,13.0043001175,"Salzburg Airport","AT","LOWS"
48.110298156738,16.569700241089,"Vienna International Airport","AT","LOWW"
47.202801,14.7442,"Hinterstoisser Air Base","AT","LOXZ"
0.1,0.1,"(Duplicate)YKCY","AU","AU-0121"
-34.9432983398438,117.80899810791,"Albany Airport","AU","YABA"
-27.6406,152.712006,"RAAF Base Amberley","AU","YAMB"
-23.646099,146.584,"Alpha Airport","AU","YAPH"
-37.309398651123,142.988998413086,"Ararat Airport","AU","YARA"
-30.5280990601,151.617004395,"Armidale Airport","AU","YARM"
-25.1861,130.975998,"Ayers Rock Connellan Airport","AU","YAYE"
-23.5652999878,145.307006836,"Barcaldine Airport","AU","YBAR"
-23.8066997528076,133.901992797852,"Alice Springs Airport","AU","YBAS"
-27.3841991424561,153.117004394531,"Brisbane International Airport","AU","YBBN"
-28.1644001007,153.505004883,"Gold Coast Airport","AU","YBCG"
-24.4277992249,145.429000854,"Blackall Airport","AU","YBCK"
-16.885799408,145.755004883,"Cairns International Airport","AU","YBCS"
-26.4132995605,146.261993408,"Charleville Airport","AU","YBCV"
-25.8974990844727,139.348007202148,"Birdsville Airport","AU","YBDV"
-32.0013999939,141.472000122,"Broken Hill Airport","AU","YBHI"
-20.3581008911,148.95199585,"Hamilton Island Airport","AU","YBHM"
-24.3460998535156,139.460006713867,"Bedourie Airport","AU","YBIE"
-30.0391998291016,145.951995849609,"Bourke Airport","AU","YBKE"
-36.5518989562988,146.00700378418,"Benalla Airport","AU","YBLA"
-20.6639003754,139.488998413,"Mount Isa Airport","AU","YBMA"
-26.6033,153.091003,"Sunshine Coast Airport","AU","YBMC"
-21.1716995239,149.179992676,"Mackay Airport","AU","YBMK"
-28.8339004517,153.56199646,"Ballina Byron Gateway Airport","AU","YBNA"
-37.8875007629395,147.567993164062,"Bairnsdale Airport","AU","YBNS"
-27.4113998413086,151.735000610352,"Oakey Airport","AU","YBOK"
-22.9132995605469,139.899993896484,"Boulia Airport","AU","YBOU"
-20.4950008392,148.552001953,"Proserpine Whitsunday Coast Airport","AU","YBPN"
-23.3819007874,150.475006104,"Rockhampton Airport","AU","YBRK"
-17.9447002410889,122.232002258301,"Broome International Airport","AU","YBRM"
-34.6236000061035,143.578002929688,"Balranald Airport","AU","YBRN"
-29.9738998413086,146.817001342773,"Brewarrina Airport","AU","YBRW"
-33.4094009399,149.651992798,"Bathurst Airport","AU","YBTH"
-11.7692003250122,130.619995117188,"Bathurst Island Airport","AU","YBTI"
-19.2525005340576,146.764999389648,"Townsville Airport","AU","YBTL"
-23.603099822998,148.807006835938,"Blackwater Airport","AU","YBTR"
-24.9039001465,152.319000244,"Bundaberg Airport","AU","YBUD"
-12.6786003113,141.925003052,"Weipa Airport","AU","YBWP"
-27.558332,151.793335,"Toowoomba Wellcamp Airport","AU","YBWW"
-24.880211,113.67174,"Carnarvon Airport","AU","YCAR"
-31.5382995605469,145.794006347656,"Cobar Airport","AU","YCBA"
-31.3325004577637,149.266998291016,"Coonabarabran Airport","AU","YCBB"
-29.0400009155273,134.720993041992,"Coober Pedy Airport","AU","YCBP"
-26.7749996185303,150.617004394531,"Chinchilla Airport","AU","YCCA"
-20.6686000824,140.503997803,"Cloncurry Airport","AU","YCCY"
-32.1305999755859,133.710006713867,"Ceduna Airport","AU","YCDU"
-33.7097015380859,136.505004882812,"Cleve Airport","AU","YCEE"
-17.5813999176,123.82800293,"RAAF Base Curtin","AU","YCIN"
-15.4447002410889,145.184005737305,"Cooktown Airport","AU","YCKN"
-22.773099899292,147.621002197266,"Clermont Airport","AU","YCMT"
-28.0300006866455,145.621994018555,"Cunnamulla Airport","AU","YCMU"
-30.9832992553711,148.376007080078,"Coonamble Airport","AU","YCNM"
-13.761133,143.113311,"Coen Airport","AU","YCOE"
-36.3005981445,148.973999023,"Cooma Snowy Mountains Airport","AU","YCOM"
-35.994701385498,146.356994628906,"Corowa Airport","AU","YCOR"
-36.1828002929688,147.888000488281,"Corryong Airport","AU","YCRG"
-34.6239013671875,148.02799987793,"Cootamundra Airport","AU","YCTM"
-33.8446998596191,148.649002075195,"Cowra Airport","AU","YCWR"
-28.5916996002197,148.216995239258,"Dirranbandi Airport","AU","YDBI"
-17.3700008392334,123.661003112793,"Derby Airport","AU","YDBY"
-35.5593986511,144.945999146,"Deniliquin Airport","AU","YDLQ"
-41.1697006226,146.429992676,"Devonport Airport","AU","YDPO"
-22.622200012207,148.363998413086,"Dysart Airport","AU","YDYS"
-36.1571998596191,144.761993408203,"Echuca Airport","AU","YECH"
-12.0193996429,135.570999146,"Elcho Island Airport","AU","YELD"
-23.5674991608,148.179000854,"Emerald Airport","AU","YEML"
-33.684399,121.822998,"Esperance Airport","AU","YESP"
-33.363602,147.934998,"Forbes Airport","AU","YFBS"
-30.8381004333496,128.115005493164,"Forrest Airport","AU","YFRT"
-18.1819000244141,125.55899810791,"Fitzroy Crossing Airport","AU","YFTZ"
-30.9610996246338,150.251007080078,"Gunnedah Airport","AU","YGDH"
-28.796101,114.707001,"Geraldton Airport","AU","YGEL"
-29.7593994140625,153.029998779297,"Grafton Airport","AU","YGFN"
-23.869699,151.223007,"Gladstone Airport","AU","YGLA"
-34.8102989196777,149.725997924805,"Goulburn Airport","AU","YGLB"
-29.6749992370605,151.688995361328,"Glen Innes Airport","AU","YGLI"
-11.4025001525879,130.421997070312,"Garden Point Airport","AU","YGPT"
-13.9750003815,136.460006714,"Groote Eylandt Airport","AU","YGTE"
-34.2508010864,146.067001343,"Griffith Airport","AU","YGTH"
-34.5313987731934,144.830001831055,"Hay Airport","AU","YHAY"
-25.3188991547,152.880004883,"Hervey Bay Airport","AU","YHBA"
-10.586400032,142.289993286,"Horn Island Airport","AU","YHID"
-18.2339000701904,127.669998168945,"Halls Creek Airport","AU","YHLC"
-37.6488990783691,142.065002441406,"Hamilton Airport","AU","YHML"
-37.0475006104,147.333999634,"Mount Hotham Airport","AU","YHOT"
-35.7153015136719,142.360000610352,"Hopetoun Airport","AU","YHPN"
-36.6697006225586,142.173004150391,"Horsham Airport","AU","YHSM"
-29.888299942,151.143997192,"Inverell Airport","AU","YIVL"
-35.7513999938965,143.938995361328,"Kerang Airport","AU","YKER"
-39.877498626709,143.878005981445,"King Island Airport","AU","YKII"
-31.0743999481201,152.770004272461,"Kempsey Airport","AU","YKMP"
-15.4856004714966,141.751007080078,"Kowanyama Airport","AU","YKOW"
-26.5807991027832,151.841003417969,"Kingaroy Airport","AU","YKRY"
-35.7139015197754,137.52099609375,"Kingscote Airport","AU","YKSC"
-30.5983009338379,138.425994873047,"Leigh Creek Airport","AU","YLEC"
-28.8780994415283,121.315002441406,"Leonora Airport","AU","YLEO"
-12.7869,143.304993,"Lockhart River Airport","AU","YLHR"
-28.8302993774,153.259994507,"Lismore Airport","AU","YLIS"
-29.4566993713379,147.983993530273,"Lightning Ridge Airport","AU","YLRD"
-23.4342002869,144.279998779,"Longreach Airport","AU","YLRE"
-27.8432998657227,120.703002929688,"Leinster Airport","AU","YLST"
-38.207199,146.470001,"Latrobe Valley Airport","AU","YLTV"
-38.039398,144.468994,"Avalon Airport","AU","YMAV"
-36.067798614502,146.957992553711,"Albury Airport","AU","YMAY"
-17.0692005157471,145.419006347656,"Mareeba Airport","AU","YMBA"
-32.5625,149.610992432,"Mudgee Airport","AU","YMDG"
-26.6117000579834,118.547996520996,"Meekatharra Airport","AU","YMEK"
-37.7281,144.901993,"Melbourne Essendon Airport","AU","YMEN"
-36.9085998535,149.901000977,"Merimbula Airport","AU","YMER"
-38.0988998413,147.149002075,"RAAF Base East Sale","AU","YMES"
-12.0560998917,134.23399353,"Maningrida Airport","AU","YMGD"
-42.836101532,147.509994507,"Hobart International Airport","AU","YMHB"
-34.2291984558,142.085998535,"Mildura Airport","AU","YMIA"
-41.54529953,147.214004517,"Launceston Airport","AU","YMLT"
-37.9757995605469,145.102005004883,"Melbourne Moorabbin Airport","AU","YMMB"
-37.673302,144.843002,"Melbourne International Airport","AU","YMML"
-27.2863998413086,120.555000305176,"Mount Keith Airport","AU","YMNE"
-28.1161003112793,117.842002868652,"Mount Magnet Airport","AU","YMOG"
-29.4988994598,149.845001221,"Moree Airport","AU","YMOR"
-22.057800293,148.07699585,"Moranbah Airport","AU","YMRB"
-35.8978004456,150.143997192,"Moruya Airport","AU","YMRY"
-37.7456016540527,140.785003662109,"Mount Gambier Airport","AU","YMTG"
-34.7022018433,146.511993408,"Narrandera Airport","AU","YNAR"
-30.3192005157,149.82699585,"Narrabri Airport","AU","YNBR"
-14.7228002548218,134.746994018555,"Ngukurr Airport","AU","YNGU"
-32.2146987915039,148.225006103516,"Narromine Airport","AU","YNRM"
-17.68409,141.069664,"Normanton Airport","AU","YNTN"
-23.4178009033,119.803001404,"Newman Airport","AU","YNWN"
-33.3816986084,149.132995605,"Orange Airport","AU","YORG"
-34.945,138.531006,"Adelaide International Airport","AU","YPAD"
-32.5069007873535,137.716995239258,"Port Augusta Airport","AU","YPAG"
-23.1711006165,117.745002747,"Paraburdoo Airport","AU","YPBO"
-12.4146995544434,130.876998901367,"Darwin International Airport","AU","YPDN"
-31.6678009033203,116.014999389648,"RAAF Base Pearce","AU","YPEA"
-34.7024993896484,138.621002197266,"RAAF Base Edinburgh","AU","YPED"
-12.2693996429,136.817993164,"Gove Airport","AU","YPGV"
-33.238899230957,137.994995117188,"Port Pirie Airport","AU","YPIR"
-32.0974998474121,115.880996704102,"Perth Jandakot Airport","AU","YPJT"
-20.7122001648,116.773002625,"Karratha Airport","AU","YPKA"
-30.7894001007,121.461997986,"Kalgoorlie Boulder Airport","AU","YPKG"
-33.131401062,148.238998413,"Parkes Airport","AU","YPKS"
-14.25,129.529006958008,"Port Keats Airport","AU","YPKT"
-15.7781000137,128.707992554,"Kununurra Airport","AU","YPKU"
-34.6053009033,135.880004883,"Port Lincoln Airport","AU","YPLC"
-22.2355995178,114.088996887,"Learmonth Airport","AU","YPLM"
-31.4358005524,152.863006592,"Port Macquarie Airport","AU","YPMQ"
-38.3180999755859,141.470993041992,"Portland Airport","AU","YPOD"
-20.3777999878,118.625999451,"Port Hedland International Airport","AU","YPPD"
-31.940299987793,115.967002868652,"Perth International Airport","AU","YPPH"
-14.5211000442505,132.378005981445,"Tindal Airport","AU","YPTN"
-26.6121997833252,144.253005981445,"Quilpie Airport","AU","YQLP"
-34.1963996887207,140.67399597168,"Renmark Airport","AU","YREN"
-26.5450000763,148.774993896,"Roma Airport","AU","YROM"
-33.9244003295898,150.988006591797,"Sydney Bankstown Airport","AU","YSBK"
-35.3069000244141,149.195007324219,"Canberra International Airport","AU","YSCB"
-30.320601,153.115997,"Coffs Harbour Airport","AU","YSCH"
-34.0402984619141,150.686996459961,"Camden Airport","AU","YSCN"
-32.2167015076,148.574996948,"Dubbo City Regional Airport","AU","YSDU"
-25.8938999176,113.577003479,"Shark Bay Airport","AU","YSHK"
-36.4289016723633,145.393005371094,"Shepparton Airport","AU","YSHT"
-40.8349990844727,145.083999633789,"Smithton Airport","AU","YSMI"
-11.4228000640869,130.654006958008,"Snake Bay Airport","AU","YSNB"
-34.9488983154297,150.537002563477,"Nowra Airport","AU","YSNW"
-33.600601,150.781006,"RAAF Base Richmond","AU","YSRI"
-33.9460983276367,151.177001953125,"Sydney Kingsford Smith International Airport","AU","YSSY"
-31.0839004517,150.847000122,"Tamworth Airport","AU","YSTW"
-35.1652984619,147.466003418,"Wagga Wagga City Airport","AU","YSWG"
-35.3758010864258,143.533004760742,"Swan Hill Airport","AU","YSWH"
-37.0717010498047,142.740997314453,"Stawell Airport","AU","YSWL"
-21.7150001525879,122.228996276855,"Telfer Airport","AU","YTEF"
-34.4213981628418,147.511993408203,"Temora Airport","AU","YTEM"
-27.986400604248,143.811004638672,"Thargomindah Airport","AU","YTGM"
-29.451099395752,142.057998657227,"Tibooburra Airport","AU","YTIB"
-35.2627983093262,148.240997314453,"Tumut Airport","AU","YTMU"
-24.4939002990723,150.57600402832,"Thangool Airport","AU","YTNG"
-19.6343994140625,134.182998657227,"Tennant Creek Airport","AU","YTNK"
-31.8885993958,152.514007568,"Taree Airport","AU","YTRE"
-25.4130992889404,142.667007446289,"Windorah Airport","AU","YWDH"
-36.4157981872559,146.307006835938,"Wangaratta Airport","AU","YWGT"
-33.0588989257812,137.514007568359,"Whyalla Airport","AU","YWHA"
-36.3210983276367,142.419006347656,"Warracknabeal Airport","AU","YWKB"
-30.0328006744385,148.126007080078,"Walgett Airport","AU","YWLG"
-32.7949981689453,151.833999633789,"Newcastle Airport","AU","YWLM"
-26.6291999816895,120.221000671387,"Wiluna Airport","AU","YWLU"
-34.5611,150.789001,"Shellharbour Airport","AU","YWOL"
-31.7332992553711,147.802993774414,"Warren Airport","AU","YWRN"
-38.090827,146.965335,"West Sale Airport","AU","YWSL"
-22.3635997772217,143.085998535156,"Winton Airport","AU","YWTN"
-33.9371986389,147.190994263,"West Wyalong Airport","AU","YWWL"
-40.9989013671875,145.731002807617,"Wynyard Airport","AU","YWYY"
-34.2555999755859,148.248001098633,"Young Airport","AU","YYNG"
12.5014,-70.015198,"Queen Beatrix International Airport","AW","TNCA"
40.4955422161,49.9768066406,"Zabrat Airport","AZ","AZ-0001"
40.8073129238,49.4314813614,"Sital Chay Airport","AZ","AZ-0013"
39.0061622679,48.8063120842,"Kyzylagadzh Air Base","AZ","AZ-0021"
40.5915985107422,49.5573997497559,"Nasosnaya Air Base","AZ","UB12"
39.9014015197754,46.7869987487793,"Stepanakert Air Base","AZ","UB13"
40.2736015319824,48.1636009216309,"Kyurdamir Air Base","AZ","UB14"
40.4066009521484,50.2001991271973,"Baku Kala Air Base","AZ","UB18"
40.4674987792969,50.0466995239258,"Heydar Aliyev International Airport","AZ","UBBB"
40.7377014160156,46.3176002502441,"Ganja Airport","AZ","UBBG"
39.1888008117676,45.4584007263184,"Nakhchivan Airport","AZ","UBBN"
40.826667,47.7125,"Gabala International Airport","AZ","UBBQ"
40.8875999450684,45.9570007324219,"Dollyar Air Base","AZ","UG11"
44.9413986206055,17.2975006103516,"Banja Luka International Airport","BA","LQBK"
43.282901763916,17.8458995819092,"Mostar International Airport","BA","LQMO"
43.8246002197266,18.3314990997314,"Sarajevo International Airport","BA","LQSA"
44.4586982727051,18.7248001098633,"Tuzla International Airport","BA","LQTZ"
13.0746,-59.4925,"Grantley Adams International Airport","BB","TBPB"
22.8010005950928,90.3012008666992,"Barisal Airport","BD","VGBR"
21.4521999359131,91.9638977050781,"Cox's Bazar Airport","BD","VGCB"
22.2495994567871,91.8133010864258,"Shah Amanat International Airport","BD","VGEG"
24.1525001525879,89.0494003295898,"Ishurdi Airport","BD","VGIS"
23.1837997436523,89.1607971191406,"Jessore Airport","BD","VGJR"
24.4372005462646,88.6165008544922,"Shah Mokhdum Airport","BD","VGRJ"
25.7591991424561,88.9088973999023,"Saidpur Airport","BD","VGSD"
24.9631996154785,91.8667984008789,"Osmany International Airport","BD","VGSY"
23.843347,90.397783,"Hazrat Shahjalal International Airport","BD","VGZR"
51.1893997192,4.46027994156,"Antwerp International Airport (Deurne)","BE","EBAW"
50.7585983276367,4.76833009719849,"Beauvechain Air Base","BE","EBBE"
51.168301,5.47,"Kleine Brogel Air Base","BE","EBBL"
50.9014015198,4.48443984985,"Brussels Airport","BE","EBBR"
50.459202,4.45382,"Brussels South Charleroi Airport","BE","EBCI"
50.5758018493652,3.83100008964539,"Chièvres Air Base","BE","EBCV"
51.0903015136719,2.65278005599976,"Koksijde Air Base","BE","EBFN"
50.2433013916,4.64583015442,"Florennes Air Base","BE","EBFS"
50.817199707,3.20472002029,"Wevelgem Airport","BE","EBKT"
50.6374015808105,5.4432201385498,"Liège Airport","BE","EBLG"
51.1988983154,2.8622200489,"Ostend-Bruges International Airport","BE","EBOS"
12.3532,-1.51242,"Ouagadougou Airport","BF","DFFD"
11.1600999832153,-4.33096981048584,"Bobo Dioulasso Airport","BF","DFOO"
42.4548988342,26.3521995544,"Bezmer Air Base","BG","BG-JAM"
42.5695991516113,27.5151996612549,"Burgas Airport","BG","LBBG"
43.1514015197754,25.7129001617432,"Gorna Oryahovitsa Airport","BG","LBGO"
42.067799,24.8508,"Plovdiv International Airport","BG","LBPD"
42.2904014587402,24.7140007019043,"Graf Ignatievo Air Base","BG","LBPG"
43.451401,24.5028,"Dolna Mitropoliya Air Base","BG","LBPL"
42.6966934204102,23.4114360809326,"Sofia Airport","BG","LBSF"
43.4238014221191,28.1812992095947,"Balchik Air Base","BG","LBWB"
43.232101,27.8251,"Varna Airport","BG","LBWN"
26.2707996368408,50.6335983276367,"Bahrain International Airport","BH","OBBI"
25.918399810791,50.5905990600586,"Sheik Isa Air Base","BH","OBBS"
-3.32401990890503,29.3185005187988,"Bujumbura International Airport","BI","HBBA"
6.3572301864624,2.38435006141663,"Cadjehoun Airport","BJ","DBBB"
17.9043998718262,-62.8436012268066,"Gustaf III Airport","BL","TFFJ"
32.3639984130859,-64.6787033081055,"L.F. Wade International International Airport","BM","TXKF"
4.94420003890991,114.928001403809,"Brunei International Airport","BN","WBSB"
-19.246835,-65.149611,"Alcantarí Airport","BO","SLAL"
-22.7733001709,-64.3128967285,"Bermejo Airport","BO","SLBJ"
-17.4211006164551,-66.1771011352539,"Jorge Wilsterman International Airport","BO","SLCB"
-11.0403995514,-68.7829971313,"Capitán Aníbal Arab Airport","BO","SLCO"
-17.8115997314,-63.1715011597,"El Trompillo Airport","BO","SLET"
-16.5132999420166,-68.1922988891602,"El Alto International Airport","BO","SLLP"
-17.962600708,-67.0762023926,"Juan Mendoza Airport","BO","SLOR"
-19.543331,-65.723734,"Capitan Nicolas Rojas Airport","BO","SLPO"
-18.975301,-57.820599,"Capitán Av. Salvador Ogaya G. airport","BO","SLPS"
-13.7622003555,-65.4352035522,"Santa Ana Del Yacuma Airport","BO","SLSA"
-19.007099,-65.288696,"Juana Azurduy De Padilla Airport","BO","SLSU"
-21.5557003021,-64.7013015747,"Capitan Oriel Lea Plaza Airport","BO","SLTJ"
-14.8186998367,-64.9179992676,"Teniente Av. Jorge Henrich Arauz Airport","BO","SLTR"
-21.2551994324,-63.4056015015,"Teniente Coronel Rafael Pabón Airport","BO","SLVM"
-17.6448,-63.135399,"Viru Viru International Airport","BO","SLVR"
-21.9608993530273,-63.6516990661621,"Yacuiba Airport","BO","SLYA"
12.1309995651245,-68.2685012817383,"Flamingo International Airport","BQ","TNCB"
17.4965000152588,-62.9794006347656,"F. D. Roosevelt Airport","BQ","TNCE"
-14.907885,-40.914804,"Glauber de Andrade Rocha Airport","BR","BR-0569"
-2.906425,-40.357338,"Comandante Ariston Pessoa Airport","BR","JJD"
-8.34835,-49.301498,"Conceição do Araguaia Airport","BR","SBAA"
-4.568611,-37.804722,"Aracati Airport","BR","SBAC"
-22.875099,-43.384701,"Campo Délio Jardim de Mattos Airport","BR","SBAF"
-16.2292,-48.964298,"Base Aérea Airport","BR","SBAN"
-21.8120002747,-48.1329994202,"Araraquara Airport","BR","SBAQ"
-10.984000206,-37.0703010559,"Santa Maria Airport","BR","SBAR"
-9.8663892746,-56.1049995422,"Piloto Osvaldo Marques Dias Airport","BR","SBAT"
-21.1413002014,-50.4247016907,"Araçatuba Airport","BR","SBAU"
-1.37925004959,-48.4762992859,"Val de Cans/Júlio Cezar Ribeiro International Airport","BR","SBBE"
-31.39049911499,-54.112201690674,"Comandante Gustavo Kraemer Airport","BR","SBBG"
-19.8512001037598,-43.9505996704102,"Pampulha - Carlos Drummond de Andrade Airport","BR","SBBH"
-25.4050998688,-49.2319984436,"Bacacheri Airport","BR","SBBI"
-21.2672,-43.761101,"Major Brigadeiro Doorgal Borges Airport","BR","SBBQ"
-15.8691673278809,-47.9208335876465,"Presidente Juscelino Kubistschek International Airport","BR","SBBR"
-20.584499359131,-48.594100952148,"Chafei Amsei Airport","BR","SBBT"
-22.3449993134,-49.0537986755,"Bauru Airport","BR","SBBU"
2.84138894081,-60.6922225952,"Atlas Brasil Cantanhede Airport","BR","SBBV"
-15.8613004684,-52.3889007568,"Barra do Garças Airport","BR","SBBW"
-22.770881,-41.96308,"Umberto Modiano Airport","BR","SBBZ"
-25.0002994537,-53.5008010864,"Cascavel Airport","BR","SBCA"
-9.33393955231,-54.9654006958,"Cachimbo Airport","BR","SBCC"
-19.6244430541992,-43.9719429016113,"Tancredo Neves International Airport","BR","SBCF"
-20.4687004089,-54.6725006104,"Campo Grande Airport","BR","SBCG"
-27.134199142456,-52.656600952148,"Serafin Enoss Bertaso Airport","BR","SBCH"
-7.32043981552124,-47.4586982727051,"Brig. Lysias Augusto Rodrigues Airport","BR","SBCI"
-6.11527776718,-50.0013885498,"Carajás Airport","BR","SBCJ"
-28.7244434357,-49.4213905334,"Diomício Freitas Airport","BR","SBCM"
-29.945928,-51.144413,"Canoas Air Force Base","BR","SBCO"
-21.698299408,-41.301700592,"Bartolomeu Lisandro Airport","BR","SBCP"
-19.0119438171,-57.6713905334,"Corumbá International Airport","BR","SBCR"
-25.5284996033,-49.1758003235,"Afonso Pena Airport","BR","SBCT"
-17.6523,-39.253101,"Caravelas Airport","BR","SBCV"
-29.1970996857,-51.1875,"Hugo Cantergiani Regional Airport","BR","SBCX"
-15.6528997421,-56.1166992188,"Marechal Rondon Airport","BR","SBCY"
-7.59990978241,-72.7695007324,"Cruzeiro do Sul Airport","BR","SBCZ"
-22.1751003265,-51.4245986938,"Presidente Prudente Airport","BR","SBDN"
-3.03861,-60.049702,"Eduardo Gomes International Airport","BR","SBEG"
-6.2331600189209,-57.7769012451172,"Jacareacanga Airport","BR","SBEK"
-25.6002788543701,-54.4850006103516,"Cataratas International Airport","BR","SBFI"
-27.6702785491943,-48.5525016784668,"Hercílio Luz International Airport","BR","SBFL"
-3.85493,-32.423302,"Fernando de Noronha Airport","BR","SBFN"
-3.77627992630005,-38.532600402832,"Pinto Martins International Airport","BR","SBFZ"
-22.8099994659,-43.2505569458,"Rio Galeão – Tom Jobim International Airport","BR","SBGL"
-10.7863998413086,-65.284797668457,"Guajará-Mirim Airport","BR","SBGM"
-16.6319999694824,-49.2206993103027,"Santa Genoveva Airport","BR","SBGO"
-23.4355564117432,-46.4730567932129,"Guarulhos - Governador André Franco Montoro International Airport","BR","SBGR"
-22.7915992736816,-45.2047996520996,"Guaratinguetá Airport","BR","SBGW"
-3.2539100646973,-52.254001617432,"Altamira Airport","BR","SBHT"
-3.1272599697113,-58.481201171875,"Itacoatiara Airport","BR","SBIC"
-4.2423400878906,-56.000701904297,"Itaituba Airport","BR","SBIH"
-14.815999984741,-39.033199310303,"Bahia - Jorge Amado Airport","BR","SBIL"
-19.470699310303,-42.487598419189,"Usiminas Airport","BR","SBIP"
-5.53129,-47.459999,"Prefeito Renato Moreira Airport","BR","SBIZ"
-21.7915000915527,-43.3867988586426,"Francisco de Assis Airport","BR","SBJF"
-23.426886,-47.165658,"São Paulo Catarina Executive Airport","BR","SBJH"
-7.14583301544,-34.9486122131,"Presidente Castro Pinto International Airport","BR","SBJP"
-26.2245006561279,-48.7974014282227,"Lauro Carneiro de Loyola Airport","BR","SBJV"
-7.26992,-35.8964,"Presidente João Suassuna Airport","BR","SBKG"
-23.0074005127,-47.1344985962,"Viracopos International Airport","BR","SBKP"
-27.7821006775,-50.28150177,"Lages Airport","BR","SBLJ"
-21.663999557495,-49.730499267578,"Lins Airport","BR","SBLN"
-23.3335990906,-51.1301002502,"Governador José Richa Airport","BR","SBLO"
-13.2621002197,-43.4081001282,"Bom Jesus da Lapa Airport","BR","SBLP"
-5.36858987808,-49.1380004883,"João Correa da Rocha Airport","BR","SBMA"
-13.5491,-48.195301,"Minaçu Airport","BR","SBMC"
-0.889839,-52.6022,"Monte Dourado Airport","BR","SBMD"
-22.343000412,-41.7659988403,"Macaé Airport","BR","SBME"
-23.47606,-52.016187,"Regional de Maringá - Sílvio Name Júnior Airport","BR","SBMG"
-16.7068996429,-43.818901062,"Mário Ribeiro Airport","BR","SBMK"
-22.1968994141,-49.926399231,"Frank Miloye Milenkowichi–Marília State Airport","BR","SBML"
-3.14603996276855,-59.9863014221191,"Ponta Pelada Airport","BR","SBMN"
-9.51080989837646,-35.7916984558105,"Zumbi dos Palmares Airport","BR","SBMO"
0.0506640002131,-51.0722007751,"Alberto Alcolumbre Airport","BR","SBMQ"
-5.2019200325,-37.3642997742,"Dix-Sept Rosado Airport","BR","SBMS"
-23.5090999603,-46.6377983093,"Campo de Marte Airport","BR","SBMT"
-5.8113799095154,-61.278301239014,"Manicoré Airport","BR","SBMY"
-26.879999,-48.651402,"Ministro Victor Konder International Airport","BR","SBNF"
-28.2817,-54.169102,"Santo Ângelo Airport","BR","SBNM"
-5.91141986847,-35.2476997375,"Augusto Severo Airport","BR","SBNT"
3.85548996925354,-51.7969017028809,"Oiapoque Airport","BR","SBOI"
-29.9944000244141,-51.1713981628418,"Salgado Filho Airport","BR","SBPA"
-21.843000411987,-46.567901611328,"Poços de Caldas - Embaixador Walther Moreira Salles Airport","BR","SBPC"
-28.243999,-52.326599,"Lauro Kurtz Airport","BR","SBPF"
-10.2915000916,-48.3569984436,"Brigadeiro Lysias Rodrigues Airport","BR","SBPJ"
-31.718399,-52.327702,"João Simões Lopes Neto International Airport","BR","SBPK"
-9.3624095916748,-40.5690994262695,"Senador Nilo Coelho Airport","BR","SBPL"
-10.719402,-48.3997,"Porto Nacional Airport","BR","SBPN"
-22.5496006011963,-55.7025985717773,"Ponta Porã Airport","BR","SBPP"
-16.438601,-39.080898,"Porto Seguro Airport","BR","SBPS"
-8.70928955078125,-63.9023017883301,"Governador Jorge Teixeira de Oliveira Airport","BR","SBPV"
-14.8628,-40.863098,"Vitória da Conquista Airport","BR","SBQV"
-9.86888885498047,-67.8980560302734,"Plácido de Castro Airport","BR","SBRB"
-8.12648963928223,-34.9235992431641,"Guararapes - Gilberto Freyre International Airport","BR","SBRF"
-22.9104995728,-43.1631011963,"Santos Dumont Airport","BR","SBRJ"
-21.1363887786865,-47.776668548584,"Leite Lopes Airport","BR","SBRP"
-22.9324,-43.719101,"Santa Cruz Air Force Base","BR","SBSC"
-5.768056,-35.376111,"Governador Aluízio Alves International Airport","BR","SBSG"
-23.2292003631592,-45.861499786377,"Professor Urbano Ernesto Stumpf Airport","BR","SBSJ"
-2.58536005020142,-44.2341003417969,"Marechal Cunha Machado International Airport","BR","SBSL"
-29.711399,-53.688202,"Santa Maria Airport","BR","SBSM"
-2.42472195625305,-54.785831451416,"Maestro Wilson Fonseca Airport","BR","SBSN"
-23.6261100769043,-46.6563873291016,"Congonhas Airport","BR","SBSP"
-20.8166007996,-49.40650177,"Prof. Eribelto Manoel Reino State Airport","BR","SBSR"
-23.9280567169189,-46.2997207641602,"Base Aérea de Santos Airport","BR","SBST"
-12.9086112976,-38.3224983215,"Deputado Luiz Eduardo Magalhães International Airport","BR","SBSV"
-23.0401000976562,-45.515998840332,"Base de Aviação de Taubaté Airport","BR","SBTA"
-1.489599943161,-56.396800994873,"Trombetas Airport","BR","SBTB"
-5.0599398613,-42.8235015869,"Senador Petrônio Portela Airport","BR","SBTE"
-3.38294005394,-64.7240982056,"Tefé Airport","BR","SBTF"
-8.1552600860596,-70.783302307129,"Tarauacá Airport","BR","SBTK"
-24.317801,-50.6516,"Telêmaco Borba Airport","BR","SBTL"
2.22347,-55.946098,"Tiriós Airport","BR","SBTS"
-4.2556700706482,-69.93579864502,"Tabatinga Airport","BR","SBTT"
-3.7860100269318,-49.72029876709,"Tucuruí Airport","BR","SBTU"
-0.14835,-66.9855,"São Gabriel da Cachoeira Airport","BR","SBUA"
-9.4008798599243,-38.250598907471,"Paulo Afonso Airport","BR","SBUF"
-29.7821998596,-57.0382003784,"Rubem Berta Airport","BR","SBUG"
-18.883612,-48.225277,"Ten. Cel. Aviador César Bombonato Airport","BR","SBUL"
-19.764722824097,-47.966110229492,"Mário de Almeida Franco Airport","BR","SBUR"
-21.5900993347,-45.4733009338,"Major Brigadeiro Trompowsky Airport","BR","SBVG"
-12.694399833679,-60.098300933838,"Brigadeiro Camarão Airport","BR","SBVH"
-20.258057,-40.286388,"Eurico de Aguiar Salles Airport","BR","SBVT"
-21.9846000671387,-47.3348007202148,"Campo Fontenelle Airport","BR","SBYS"
-21.513086,-43.173069,"Presidente Itamar Franco Airport","BR","SBZM"
-21.5130558014,-43.1730575562,"Zona da Mata Regional Airport","BR","SDZY"
-22.1668591409,-49.0502866745,"Bauru - Arealva Airport","BR","SJTC"
-25.1847,-50.1441,"Ponta Grossa Airport - Comandante Antonio Amilton Beraldo","BR","SSZW"
-7.22787,-48.240501,"Araguaína Airport","BR","SWGN"
24.2877006530762,-77.6846008300781,"Clarence A. Bain Airport","BS","MYAB"
24.6979007720947,-77.7956008911133,"Andros Town Airport","BS","MYAF"
24.158701,-77.589798,"Congo Town Airport","BS","MYAK"
26.5114,-77.083503,"Leonard M Thompson International Airport","BS","MYAM"
25.0538005828857,-78.0490036010742,"San Andros Airport","BS","MYAN"
22.4417991638,-73.9709014893,"Spring Point Airport","BS","MYAP"
26.745300293,-77.3912963867,"Treasure Cay Airport","BS","MYAT"
25.4171009063721,-77.8808975219727,"Chub Cay Airport","BS","MYBC"
25.7383,-77.840103,"Great Harbour Cay Airport","BS","MYBG"
25.6998996735,-79.2647018433,"South Bimini Airport","BS","MYBS"
24.6294,-75.673797,"Arthur's Town Airport","BS","MYCA"
24.3153,-75.452301,"New Bight Airport","BS","MYCB"
22.7455997467,-74.1824035645,"Colonel Hill Airport","BS","MYCI"
23.5625991821,-75.8779983521,"Exuma International Airport","BS","MYEF"
23.4666996002,-75.7817001343,"George Town Airport","BS","MYEG"
25.474899292,-76.6835021973,"North Eleuthera Airport","BS","MYEH"
25.2847003937,-76.3310012817,"Governor's Harbour Airport","BS","MYEM"
24.5942993164062,-76.820198059082,"Normans Cay Airport","BS","MYEN"
24.8950787333,-76.1768817902,"Rock Sound Airport","BS","MYER"
24.1690998077393,-76.4391021728516,"Staniel Cay Airport","BS","MYES"
26.5587005615,-78.695602417,"Grand Bahama International Airport","BS","MYGF"
20.9750003814697,-73.6669006347656,"Inagua Airport","BS","MYIG"
23.1790008545,-75.0935974121,"Deadman's Cay Airport","BS","MYLD"
23.011194,-74.905889,"Hard Bargain Airport","BS","MYLR"
23.582317,-75.268621,"Stella Maris Airport","BS","MYLS"
22.379499,-73.013494,"Mayaguana Airport","BS","MYMM"
25.039,-77.466202,"Lynden Pindling International Airport","BS","MYNN"
22.1818008422852,-75.7294998168945,"Duncan Town Airport","BS","MYRD"
24.0632991790771,-74.5240020751953,"San Salvador Airport","BS","MYSM"
26.88456,90.46412,"Gelephu Airport","BT","VQGP"
27.4032001495,89.4245986938,"Paro Airport","BT","VQPR"
-21.1595993041992,27.4745006561279,"Francistown Airport","BW","FBFT"
-24.6023006439209,24.6909999847412,"Jwaneng Airport","BW","FBJW"
-17.8328990936279,25.1623992919922,"Kasane Airport","BW","FBKE"
-19.9726009368896,23.4311008453369,"Maun Airport","BW","FBMN"
-24.555201,25.9182,"Sir Seretse Khama International Airport","BW","FBSK"
-20.5534,26.115801,"Sua Pan Airport","BW","FBSN"
-22.0583,27.8288,"Selebi Phikwe Airport","BW","FBSP"
54.439998626709,30.2966995239258,"Balbasovo Air Base","BY","BY-0001"
52.2783012390137,29.3600006103516,"Bobrovichi Air Base","BY","BY-0003"
52.5569992065,24.8840007782,"Osovtsy Air Base","BY","BY-0006"
52.108299,23.8981,"Brest Airport","BY","UMBB"
52.5270004272461,31.0167007446289,"Gomel Airport","BY","UMGG"
55.126499176025,30.349599838257,"Vitebsk Vostochny Airport","BY","UMII"
53.0999984741211,26.0499992370605,"Baranavichi Air Base","BY","UMMA"
53.6020011901855,24.0538005828857,"Hrodna Airport","BY","UMMG"
53.882499694824,28.030700683594,"Minsk National Airport","BY","UMMS"
53.105,29.205,"Babruisk Air Base","BY","UMNB"
53.9548988342285,30.095100402832,"Mogilev Airport","BY","UMOO"
16.5193691253662,-88.4079132080078,"Big Creek Airport","BZ","BZ-BGK"
17.7346992492676,-88.0325012207031,"Caye Caulker Airport","BZ","BZ-CUK"
17.7007999420166,-88.0410995483398,"Caye Chapel Airport","BZ","BZ-CYC"
18.3822002410889,-88.4119033813477,"Corozal Municipal Airport","BZ","BZ-CZH"
16.9825096130371,-88.2309875488281,"Dangriga Airport","BZ","BZ-DGA"
16.5369567871094,-88.3615112304688,"Placencia Airport","BZ","BZ-PLJ"
16.102399826,-88.8082962036,"Punta Gorda Airport","BZ","BZ-PND"
18.3561000823975,-88.1307983398438,"Sartaneja Airport","BZ","BZ-SJX"
17.9139,-87.9711,"San Pedro Airport","BZ","BZ-SPR"
17.5163898468018,-88.1944427490234,"Belize City Municipal Airport","BZ","BZ-TZA"
17.5391006469727,-88.3081970214844,"Philip S. W. Goldson International Airport","BZ","MZBZ"
49.05497,-123.87085,"Cycd","CA","CA-0673"
43.7603,-79.875,"Brampton-Caledon Airport","CA","CNC3"
51.7271995544434,-91.8244018554688,"Cat Lake Airport","CA","CYAC"
48.6542015075684,-93.439697265625,"Fort Frances Municipal Airport","CA","CYAG"
53.754699707,-73.6753005981,"La Grande-4 Airport","CA","CYAH"
50.5821990966797,-126.916000366211,"Alert Bay Airport","CA","CYAL"
46.485001,-84.509399,"Sault Ste Marie Airport","CA","CYAM"
53.5247001647949,-88.6427993774414,"Kasabonika Airport","CA","CYAQ"
60.0271987915039,-69.9991989135742,"Kangirsuk Airport","CA","CYAS"
52.9275016784668,-82.4319000244141,"Attawapiskat Airport","CA","CYAT"
44.2303009033,-64.8561019897,"Liverpool South Shore Regional Airport","CA","CYAU"
50.0564,-97.032501,"Winnipeg / St. Andrews Airport","CA","CYAV"
50.294399,-96.010002,"Lac Du Bonnet Airport","CA","CYAX"
51.3918991089,-56.0830993652,"St. Anthony Airport","CA","CYAY"
49.079833,-125.775583,"Tofino / Long Beach Airport","CA","CYAZ"
68.534401,-89.808098,"Kugaaruk Airport","CA","CYBB"
49.1325,-68.204399,"Baie Comeau Airport","CA","CYBC"
52.387501,-126.596001,"Bella Coola Airport","CA","CYBD"
59.5614013671875,-108.481002807617,"Uranium City Airport","CA","CYBE"
54.304199,-110.744003,"Bonnyville Airport","CA","CYBF"
48.3306007385254,-70.9963989257812,"CFB Bagotville","CA","CYBG"
64.2988967896,-96.077796936,"Baker Lake Airport","CA","CYBK"
49.950802,-125.271004,"Campbell River Airport","CA","CYBL"
58.7061,-98.512199,"Tadoule Lake Airport","CA","CYBQ"
49.91,-99.951897,"Brandon Municipal Airport","CA","CYBR"
57.8894,-101.679001,"Brochet Airport","CA","CYBT"
53.3325004577637,-104.008003234863,"Nipawin Airport","CA","CYBU"
52.358898,-97.018303,"Berens River Airport","CA","CYBV"
51.1031,-114.374001,"Calgary / Springbank Airport","CA","CYBW"
51.4435997009,-57.1852989197,"Lourdes de Blanc Sablon Airport","CA","CYBX"
53.6828002929688,-57.0419006347656,"Cartwright Airport","CA","CYCA"
69.1081008911,-105.138000488,"Cambridge Bay Airport","CA","CYCB"
45.0928001403809,-74.5633010864258,"Cornwall Regional Airport","CA","CYCC"
49.0549702249,-123.869862556,"Nanaimo Airport","CA","CYCD"
43.285599,-81.508301,"Centralia / James T. Field Memorial Aerodrome","CA","CYCE"
49.2963981628,-117.632003784,"Castlegar/West Kootenay Regional Airport","CA","CYCG"
47.007801,-65.449203,"Miramichi Airport","CA","CYCH"
47.990799,-66.330299,"Charlo Airport","CA","CYCL"
49.105598449707,-81.0136032104492,"Cochrane Airport","CA","CYCN"
67.816704,-115.143997,"Kugluktuk Airport","CA","CYCO"
52.11669921875,-119.282997131348,"Blue River Airport","CA","CYCP"
55.687198638916,-121.626998901367,"Chetwynd Airport","CA","CYCQ"
54.6105995178223,-97.7608032226562,"Cross Lake (Charlie Sinclair Memorial) Airport","CA","CYCR"
63.3469009399,-90.7311019897,"Chesterfield Inlet Airport","CA","CYCS"
70.4860992432,-68.5167007446,"Clyde River Airport","CA","CYCY"
64.043098449707,-139.128005981445,"Dawson City Airport","CA","CYDA"
61.3711013793945,-139.041000366211,"Burwash Airport","CA","CYDB"
49.4681015015,-120.511001587,"Princeton Airport","CA","CYDC"
49.2108001708984,-57.3913993835449,"Deer Lake Airport","CA","CYDF"
61.9706001282,-132.42300415,"Ross River Airport","CA","CYDM"
51.1007995605469,-100.052001953125,"Dauphin Barker Airport","CA","CYDN"
48.778499603271,-72.375,"Dolbeau St Felicien Airport","CA","CYDO"
56.5491981506348,-61.6803016662598,"Nain Airport","CA","CYDP"
55.7422981262207,-120.182998657227,"Dawson Creek Airport","CA","CYDQ"
44.6833000183,-79.9282989502,"Huronia Airport","CA","CYEE"
53.3097000122,-113.580001831,"Edmonton International Airport","CA","CYEG"
61.0942001343,-94.0708007812,"Arviat Airport","CA","CYEK"
46.351398468,-82.5614013672,"Elliot Lake Municipal Airport","CA","CYEL"
45.8428001403809,-81.8581008911133,"Manitoulin East Municipal Airport","CA","CYEM"
49.2103004456,-102.966003418,"Estevan Airport","CA","CYEN"
56.0189018249512,-87.6761016845703,"Fort Severn Airport","CA","CYER"
53.5788993835,-116.464996338,"Edson Airport","CA","CYET"
68.3041992188,-133.483001709,"Inuvik Mike Zubko Airport","CA","CYEV"
48.563903,-78.249702,"Amos/Magny Airport","CA","CYEY"
52.2014007568359,-81.6968994140625,"Fort Albany Airport","CA","CYFA"
63.756402,-68.555801,"Iqaluit Airport","CA","CYFB"
45.8689002990723,-66.5372009277344,"Fredericton Airport","CA","CYFC"
48.7461013793945,-69.0971984863281,"Forestville Airport","CA","CYFE"
51.5619010925293,-87.9077987670898,"Fort Hope Airport","CA","CYFH"
46.409401,-74.779999,"La Macaza / Mont-Tremblant International Inc Airport","CA","CYFJ"
54.6781005859375,-101.681999206543,"Flin Flon Airport","CA","CYFO"
61.1808013916,-113.690002441,"Fort Resolution Airport","CA","CYFR"
61.7602005004883,-121.236999511719,"Fort Simpson Airport","CA","CYFS"
55.0769004821777,-59.1864013671875,"Makkovik Airport","CA","CYFT"
49.6941986083984,-124.517997741699,"Texada Gillies Bay Airport","CA","CYGB"
43.7668991089,-81.7106018066,"Goderich Airport","CA","CYGD"
51.299196,-116.982002,"Golden Airport","CA","CYGE"
66.2407989501953,-128.651000976562,"Fort Good Hope Airport","CA","CYGH"
44.2252998352051,-76.5969009399414,"Kingston Norman Rogers Airport","CA","CYGK"
53.625301361084,-77.7042007446289,"La Grande Rivière Airport","CA","CYGL"
50.628101348877,-97.0432968139648,"Gimli Industrial Park Airport","CA","CYGM"
54.5588989257812,-94.4914016723633,"Gods Lake Narrows Airport","CA","CYGO"
48.7752990723,-64.4785995483,"Gaspé (Michel-Pouliot) Airport","CA","CYGP"
49.7783012390137,-86.9393997192383,"Geraldton Greenstone Regional Airport","CA","CYGQ"
47.4247016906738,-61.7780990600586,"Îles-de-la-Madeleine Airport","CA","CYGR"
69.3647003174,-81.8161010742,"Igloolik Airport","CA","CYGT"
50.2818984985352,-63.611400604248,"Havre St Pierre Airport","CA","CYGV"
55.2818984985352,-77.7652969360352,"Kuujjuarapik Airport","CA","CYGW"
56.3574981689453,-94.7106018066406,"Gillam Airport","CA","CYGX"
76.4261016846,-82.9092025757,"Grise Fiord Airport","CA","CYGZ"
61.0463981628418,-69.6177978515625,"Quaqtaq Airport","CA","CYHA"
49.831699,-92.744202,"Dryden Regional Airport","CA","CYHD"
49.3683013916,-121.498001099,"Hope Airport","CA","CYHE"
49.7141990661621,-83.6860961914062,"Hearst René Fontaine Municipal Airport","CA","CYHF"
51.6911010742188,-76.1355972290039,"Nemiscau Airport","CA","CYHH"
70.7628021240234,-117.805999755859,"Ulukhaktok Holman Airport","CA","CYHI"
68.635597229,-95.8497009277,"Gjoa Haven Airport","CA","CYHK"
43.1735992432,-79.9349975586,"John C. Munro Hamilton International Airport","CA","CYHM"
49.1930999755859,-84.758903503418,"Hornepayne Municipal Airport","CA","CYHN"
55.448299407959,-60.2285995483398,"Hopedale Airport","CA","CYHO"
50.4688987731934,-59.6366996765137,"Chevery Airport","CA","CYHR"
60.7891998291016,-137.546005249023,"Haines Junction Airport","CA","CYHT"
45.5175018311,-73.4169006348,"Montréal / Saint-Hubert Airport","CA","CYHU"
60.8396987915,-115.782997131,"Hay River / Merlyn Carter Airport","CA","CYHY"
44.8807983398,-63.5085983276,"Halifax / Stanfield International Airport","CA","CYHZ"
48.7738990784,-91.6386032104,"Atikokan Municipal Airport","CA","CYIB"
44.5458450365,-65.7854247093,"Digby / Annapolis Regional Airport","CA","CYID"
51.2117004395,-58.6582984924,"St Augustin Airport","CA","CYIF"
62.4173011779785,-77.9253005981445,"Ivujivik Airport","CA","CYIK"
72.6832962036,-77.9666976929,"Pond Inlet Airport","CA","CYIO"
53.8572006225586,-94.6536026000977,"Island Lake Airport","CA","CYIV"
60.2358016968,-123.46900177,"Fort Liard Airport","CA","CYJF"
45.2943992614746,-73.2810974121094,"St Jean Airport","CA","CYJN"
48.5442008972168,-58.5499992370605,"Stephenville Airport","CA","CYJT"
50.7022018433,-120.444000244,"Kamloops Airport","CA","CYKA"
68.223297,-135.00599,"Aklavik/Freddie Carmichael Airport","CA","CYKD"
43.4608001709,-80.3786010742,"Waterloo Airport","CA","CYKF"
61.5886001587,-71.929397583,"Kangiqsujuaq (Wakeham Bay) Airport","CA","CYKG"
57.2560997009277,-105.61799621582,"Key Lake Airport","CA","CYKJ"
54.8053016662598,-66.8052978515625,"Schefferville Airport","CA","CYKL"
60.8185997009277,-78.1485977172852,"Akulivik Airport","CA","CYKO"
51.4733009338379,-78.75830078125,"Waskaganish Airport","CA","CYKQ"
48.2103004455566,-79.9813995361328,"Kirkland Lake Airport","CA","CYKX"
51.5175018311,-109.180999756,"Kindersley Airport","CA","CYKY"
43.8622016906738,-79.370002746582,"Buttonville Municipal Airport","CA","CYKZ"
59.2966995239258,-69.5997009277344,"Aupaluk Airport","CA","CYLA"
62.8499984741,-69.8833007812,"Kimmirut Airport","CA","CYLC"
47.8199996948242,-83.3467025756836,"Chapleau Airport","CA","CYLD"
52.1955986022949,-87.934196472168,"Lansdowne House Airport","CA","CYLH"
54.125301361084,-108.523002624512,"Meadow Lake Airport","CA","CYLJ"
62.418303,-110.681998,"Lutselk'e Airport","CA","CYLK"
53.3092002868652,-110.072998046875,"Lloydminster Airport","CA","CYLL"
56.5133018493652,-99.9852981567383,"Leaf Rapids Airport","CA","CYLR"
82.5177993774,-62.2806015015,"Alert Airport","CA","CYLT"
58.7113990783691,-65.9927978515625,"Kangiqsualujjuaq (Georges River) Airport","CA","CYLU"
49.9561004639,-119.377998352,"Kelowna International Airport","CA","CYLW"
63.6164016723633,-135.86799621582,"Mayo Airport","CA","CYMA"
48.8568992614746,-67.4533004760742,"Matane Airport","CA","CYME"
49.0839004516602,-85.8606033325195,"Manitouwadge Airport","CA","CYMG"
52.3027992248535,-55.8471984863281,"Mary's Harbour Airport","CA","CYMH"
50.3302993774414,-105.55899810791,"Moose Jaw Air Vice Marshal C. M. McEwen Airport","CA","CYMJ"
47.5974998474121,-70.2238998413086,"Charlevoix Airport","CA","CYML"
56.653301239,-111.222000122,"Fort McMurray Airport","CA","CYMM"
51.2910995483398,-80.6078033447266,"Moosonee Airport","CA","CYMO"
49.771900177002,-74.5280990600586,"Chapais Airport","CA","CYMT"
56.5360984802246,-76.5183029174805,"Umiujaq Airport","CA","CYMU"
45.679501,-74.038696,"Montreal International (Mirabel) Airport","CA","CYMX"
50.189998626709,-61.7891998291016,"Natashquan Airport","CA","CYNA"
53.0106010437012,-78.8311004638672,"Wemindji Airport","CA","CYNC"
45.521702,-75.563599,"Ottawa / Gatineau Airport","CA","CYND"
53.9583015441895,-97.8442001342773,"Norway House Airport","CA","CYNE"
58.2766990661621,-104.082000732422,"Points North Landing Airport","CA","CYNL"
49.7616996765137,-77.8028030395508,"Matagami Airport","CA","CYNM"
59.4874992371,-97.7802963257,"Nejanilini Lake Airport","CA","CYNN"
64.6988983154,-110.614997864,"Ekati Airport","CA","CYOA"
67.5706024169922,-139.839004516602,"Old Crow Airport","CA","CYOC"
54.4049987792969,-110.278999328613,"CFB Cold Lake","CA","CYOD"
54.9333000183105,-95.2789001464844,"Oxford House Airport","CA","CYOH"
58.6213989257812,-117.165000915527,"High Level Airport","CA","CYOJ"
43.922798,-78.894997,"Toronto/Oshawa Executive Airport","CA","CYOO"
58.4914016723633,-119.407997131348,"Rainbow Lake Airport","CA","CYOP"
44.5903015137,-80.8375015259,"Owen Sound / Billy Bishop Regional Airport","CA","CYOS"
45.3224983215332,-75.6691970825195,"Ottawa Macdonald-Cartier International Airport","CA","CYOW"
53.2141990662,-105.672996521,"Prince Albert Glass Field","CA","CYPA"
69.3608381154,-124.075469971,"Paulatuk (Nora Aliqatchialuk Ruben) Airport","CA","CYPC"
45.6567001343,-61.3680992126,"Port Hawkesbury Airport","CA","CYPD"
56.226898,-117.446999,"Peace River Airport","CA","CYPE"
49.903099,-98.273817,"Southport Airport","CA","CYPG"
58.4719009399414,-78.0768966674805,"Inukjuak Airport","CA","CYPH"
51.4463996887207,-90.2142028808594,"Pickle Lake Airport","CA","CYPL"
51.8196983337402,-93.9732971191406,"Pikangikum Airport","CA","CYPM"
49.8363990783691,-64.2885971069336,"Port Menier Airport","CA","CYPN"
54.9880981445312,-85.4432983398438,"Peawanuck Airport","CA","CYPO"
44.2299995422363,-78.3632965087891,"Peterborough Airport","CA","CYPQ"
54.2860984802,-130.445007324,"Prince Rupert Airport","CA","CYPR"
49.8342018127441,-124.5,"Powell River Airport","CA","CYPW"
60.0505981445312,-77.2869033813477,"Puvirnituq Airport","CA","CYPX"
58.7672004699707,-111.116996765137,"Fort Chipewyan Airport","CA","CYPY"
44.9747009277344,-79.3032989501953,"Muskoka Airport","CA","CYQA"
46.7911,-71.393303,"Quebec Jean Lesage International Airport","CA","CYQB"
53.9714012145996,-101.091003417969,"The Pas Airport","CA","CYQD"
52.182201385498,-113.893997192383,"Red Deer Regional Airport","CA","CYQF"
42.2756004333496,-82.9555969238281,"Windsor Airport","CA","CYQG"
60.1164016723633,-128.822006225586,"Watson Lake Airport","CA","CYQH"
43.8269004821777,-66.0880966186523,"Yarmouth Airport","CA","CYQI"
49.7882995605469,-94.3630981445312,"Kenora Airport","CA","CYQK"
49.6302986145,-112.800003052,"Lethbridge County Airport","CA","CYQL"
46.112202,-64.678596,"Greater Moncton Roméo LeBlanc International Airport","CA","CYQM"
50.1828002929688,-86.696403503418,"Nakina Airport","CA","CYQN"
49.7108001708984,-124.887001037598,"Comox Airport","CA","CYQQ"
50.4319000244141,-104.666000366211,"Regina International Airport","CA","CYQR"
42.7700004577637,-81.1108016967773,"St Thomas Municipal Airport","CA","CYQS"
48.371898651123,-89.3238983154297,"Thunder Bay Airport","CA","CYQT"
55.1796989441,-118.885002136,"Grande Prairie Airport","CA","CYQU"
51.2647018432617,-102.46199798584,"Yorkton Municipal Airport","CA","CYQV"
52.7691993713379,-108.244003295898,"North Battleford Airport","CA","CYQW"
48.9369010925293,-54.5680999755859,"Gander International Airport","CA","CYQX"
46.1614,-60.047798,"Sydney / J.A. Douglas McCurdy Airport","CA","CYQY"
53.0261001586914,-122.51000213623,"Quesnel Airport","CA","CYQZ"
64.116096496582,-117.309997558594,"Rae Lakes Airport","CA","CYRA"
74.7169036865,-94.9693984985,"Resolute Bay Airport","CA","CYRB"
47.7644004821777,-69.5847015380859,"Rivière-du-Loup Airport","CA","CYRI"
48.5200004577637,-72.2656021118164,"Roberval Airport","CA","CYRJ"
51.0668983459473,-93.793098449707,"Red Lake Airport","CA","CYRL"
45.4603004456,-75.6461029053,"Ottawa / Rockcliffe Airport","CA","CYRO"
45.3191986084,-76.0222015381,"Ottawa / Carp Airport","CA","CYRP"
46.3527984619141,-72.6793975830078,"Trois-Rivières Airport","CA","CYRQ"
54.1671981811523,-93.5571975708008,"Red Sucker Lake Airport","CA","CYRS"
62.8114013672,-92.1157989502,"Rankin Inlet Airport","CA","CYRT"
50.9667015076,-118.182998657,"Revelstoke Airport","CA","CYRV"
46.625,-80.7988967895508,"Sudbury Airport","CA","CYSB"
45.4385986328125,-71.6913986206055,"Sherbrooke Airport","CA","CYSC"
59.250301361084,-105.841003417969,"Stony Rapids Airport","CA","CYSF"
46.096401,-70.714699,"St Georges Airport","CA","CYSG"
44.94580078125,-75.9405975341797,"Smiths Falls-Montague (Russ Beach) Airport","CA","CYSH"
45.3161010742188,-65.8902969360352,"Saint John Airport","CA","CYSJ"
56.5377998352,-79.2466964722,"Sanikiluaq Airport","CA","CYSK"
47.1575012207031,-67.8347015380859,"St Leonard Airport","CA","CYSL"
60.0203018188477,-111.96199798584,"Fort Smith Airport","CA","CYSM"
43.1916999816895,-79.1716995239258,"Niagara District Airport","CA","CYSN"
48.755298614502,-86.3443984985352,"Marathon Airport","CA","CYSP"
53.8456001281738,-94.8518981933594,"St. Theresa Point Airport","CA","CYST"
46.440601348877,-63.8335990905762,"Summerside Airport","CA","CYSU"
71.9938964844,-125.242996216,"Sachs Harbour (David Nasogaluak Jr. Saaryuaq) Airport","CA","CYSY"
45.8643989562988,-77.2517013549805,"Pembroke Airport","CA","CYTA"
64.2300033569,-76.5267028809,"Cape Dorset Airport","CA","CYTE"
48.5088996887,-71.6418991089,"Alma Airport","CA","CYTF"
55.8011016845703,-97.8641967773438,"Thompson Airport","CA","CYTH"
53.817798614502,-89.8968963623047,"Big Trout Lake Airport","CA","CYTL"
58.6678009033203,-69.9558029174805,"Tasiujaq Airport","CA","CYTQ"
44.1189002990723,-77.5280990600586,"CFB Trenton","CA","CYTR"
48.5696983337,-81.376701355,"Timmins/Victor M. Power","CA","CYTS"
43.627499,-79.396202,"Billy Bishop Toronto City Centre Airport","CA","CYTZ"
69.4332962036133,-133.026000976562,"Tuktoyaktuk Airport","CA","CYUB"
45.4706001282,-73.7407989502,"Montreal / Pierre Elliott Trudeau International Airport","CA","CYUL"
66.5214,-86.224701,"Naujaat Airport","CA","CYUT"
68.7761001587,-81.2425,"Hall Beach Airport","CA","CYUX"
48.2061004638672,-78.8356018066406,"Rouyn Noranda Airport","CA","CYUY"
48.0710983276367,-65.4602966308594,"Bonaventure Airport","CA","CYVB"
55.1514015198,-105.262001038,"La Ronge Airport","CA","CYVC"
49.8782997131,-100.917999268,"Virden/R.J. (Bob) Andrew Field Regional Aerodrome","CA","CYVD"
50.2481002807617,-119.331001281738,"Vernon Airport","CA","CYVK"
67.5457992554,-64.0314025879,"Qikiqtarjuaq Airport","CA","CYVM"
48.0532989502,-77.7827987671,"Val-d'Or Airport","CA","CYVO"
58.0960998535156,-68.4269027709961,"Kuujjuaq Airport","CA","CYVP"
65.2816009521484,-126.797996520996,"Norman Wells Airport","CA","CYVQ"
49.193901062,-123.183998108,"Vancouver International Airport","CA","CYVR"
44.7458,-81.107201,"Wiarton Airport","CA","CYVV"
52.6557998657227,-94.0614013671875,"Deer Lake Airport","CA","CYVZ"
45.9522018432617,-77.3191986083984,"Petawawa Airport","CA","CYWA"
49.9099998474,-97.2398986816,"Winnipeg / James Armstrong Richardson International Airport","CA","CYWG"
65.2110977172852,-123.435997009277,"Déline Airport","CA","CYWJ"
52.9219017028809,-66.8644027709961,"Wabush Airport","CA","CYWK"
52.1831016541,-122.054000854,"Williams Lake Airport","CA","CYWL"
52.9593933975,-87.3748683929,"Webequie Airport","CA","CYWP"
63.209400177002,-123.436996459961,"Wrigley Airport","CA","CYWY"
49.610801696777,-115.78199768066,"Cranbrook/Canadian Rockies International Airport","CA","CYXC"
52.1707992553711,-106.699996948242,"Saskatoon John G. Diefenbaker International Airport","CA","CYXE"
50.0189018249512,-110.721000671387,"Medicine Hat Airport","CA","CYXH"
56.238098,-120.739998,"Fort St John Airport","CA","CYXJ"
48.478099822998,-68.4969024658203,"Rimouski Airport","CA","CYXK"
50.113899230957,-91.9052963256836,"Sioux Lookout Airport","CA","CYXL"
62.2400016785,-92.5980987549,"Whale Cove Airport","CA","CYXN"
66.1449966431,-65.7136001587,"Pangnirtung Airport","CA","CYXP"
62.4103012084961,-140.867004394531,"Beaver Creek Airport","CA","CYXQ"
47.6974006546,-79.8473453522,"Earlton (Timiskaming Regional) Airport","CA","CYXR"
53.8894004822,-122.679000854,"Prince George Airport","CA","CYXS"
54.468498,-128.576009,"Northwest Regional Airport Terrace-Kitimat","CA","CYXT"
43.035599,-81.1539,"London Airport","CA","CYXU"
49.0252990722656,-122.361000061035,"Abbotsford Airport","CA","CYXX"
60.7095985413,-135.067001343,"Whitehorse / Erik Nielsen International Airport","CA","CYXY"
47.9667015075684,-84.7866973876953,"Wawa Airport","CA","CYXZ"
46.363602,-79.422798,"North Bay Jack Garland Airport","CA","CYYB"
51.113899231,-114.019996643,"Calgary International Airport","CA","CYYC"
54.8246994018555,-127.182998657227,"Smithers Airport","CA","CYYD"
58.8363990784,-122.597000122,"Fort Nelson Airport","CA","CYYE"
49.4631004333496,-119.601997375488,"Penticton Airport","CA","CYYF"
46.2900009155273,-63.1211013793945,"Charlottetown Airport","CA","CYYG"
69.5467,-93.576698,"Taloyoak Airport","CA","CYYH"
48.646900177,-123.426002502,"Victoria International Airport","CA","CYYJ"
56.863899230957,-101.075996398926,"Lynn Lake Airport","CA","CYYL"
50.2919006348,-107.691001892,"Swift Current Airport","CA","CYYN"
58.739200592041,-94.0650024414062,"Churchill Airport","CA","CYYQ"
53.3191986084,-60.4258003235,"Goose Bay Airport","CA","CYYR"
47.618598938,-52.7518997192,"St. John's International Airport","CA","CYYT"
49.4138984680176,-82.4674987792969,"Kapuskasing Airport","CA","CYYU"
50.2902984619141,-88.9096984863281,"Armstrong Airport","CA","CYYW"
48.6086006164551,-68.2080993652344,"Mont Joli Airport","CA","CYYY"
43.6772003174,-79.6305999756,"Lester B. Pearson International Airport","CA","CYYZ"
43.7425,-79.465599,"Downsview Airport","CA","CYZD"
45.8852996826172,-82.5678024291992,"Gore Bay Manitoulin Airport","CA","CYZE"
62.4627990722656,-114.440002441406,"Yellowknife Airport","CA","CYZF"
62.1794013977051,-75.6671981811523,"Salluit Airport","CA","CYZG"
55.2930984497,-114.777000427,"Slave Lake Airport","CA","CYZH"
53.2542991638,-131.813995361,"Sandspit Airport","CA","CYZP"
42.9994010925293,-82.3088989257812,"Chris Hadfield Airport","CA","CYZR"
64.1932983398,-83.3593978882,"Coral Harbour Airport","CA","CYZS"
50.6805992126465,-127.366996765137,"Port Hardy Airport","CA","CYZT"
54.1439018249512,-115.787002563477,"Whitecourt Airport","CA","CYZU"
50.2233009338379,-66.2656021118164,"Sept-Îles Airport","CA","CYZV"
60.1727981567383,-132.74299621582,"Teslin Airport","CA","CYZW"
44.9844017028809,-64.9169006347656,"CFB Greenwood","CA","CYZX"
55.304402,-123.132004,"Mackenzie Airport","CA","CYZY"
56.0894012451172,-96.0892028808594,"York Landing Airport","CA","CZAC"
50.682802,-119.228996,"Shuswap Regional Airport","CA","CZAM"
49.0742,-123.012001,"Boundary Bay Airport","CA","CZBB"
56.0614013672,-95.613899231,"Ilford Airport","CA","CZBD"
47.629699707,-65.738899231,"Bathurst Airport","CA","CZBF"
45.2907981873,-72.7414016724,"Bromont (Roland Desourdy) Airport","CA","CZBM"
56.0374984741,-96.5096969604,"Kelsey Airport","CA","CZEE"
52.2263984680176,-78.5224990844727,"Eastmain River Airport","CA","CZEM"
62.2075004577637,-133.376007080078,"Faro Airport","CA","CZFA"
59.334400177002,-107.181999206543,"Fond-Du-Lac Airport","CA","CZFD"
55.7491989136,-101.26599884,"Pukatawagan Airport","CA","CZFG"
67.4075012207031,-134.860992431641,"Fort Mcpherson Airport","CA","CZFM"
64.909697,-125.572998,"Tulita Airport","CA","CZFN"
49.0155982971191,-118.430999755859,"Grand Forks Airport","CA","CZGF"
54.8396987915039,-94.0785980224609,"Gods River Airport","CA","CZGI"
52.0456008911133,-95.4657974243164,"Little Grand Rapids Airport","CA","CZGR"
54.5189018249512,-98.0460968017578,"Jenpeg Airport","CA","CZJG"
52.1206016540527,-101.236000061035,"Swan River Airport","CA","CZJN"
52.2825012207031,-81.6778030395508,"Kashechewan Airport","CA","CZKE"
55.3189010620117,-97.7078018188477,"Thicket Portage Airport","CA","CZLQ"
53.4413986206055,-91.7628021240234,"Muskrat Dam Airport","CA","CZMD"
55.5889015197754,-97.1641998291016,"Pikwitonei Airport","CA","CZMN"
54.0275001525879,-132.125,"Masset Airport","CA","CZMT"
52.9965258788,-97.2741937637,"Poplar River Airport","CA","CZNG"
53.8911018371582,-92.196403503418,"Sachigo Lake Airport","CA","CZPB"
49.5205993652,-113.997001648,"Pincher Creek Airport","CA","CZPC"
52.9435997009277,-91.3127975463867,"Round Lake (Weagamow Lake) Airport","CA","CZRJ"
53.0642013549805,-93.3443984985352,"Sandy Lake Airport","CA","CZSJ"
56.7928009033,-98.9072036743,"South Indian Lake Airport","CA","CZSN"
55.935410448,-129.982434511,"Stewart Airport","CA","CZST"
55.8656005859375,-92.0813980102539,"Shamattawa Airport","CA","CZTM"
49.4296989440918,-91.7177963256836,"Ignace Municipal Airport","CA","CZUC"
58.6175003052,-101.46900177,"Lac Brochet Airport","CA","CZWH"
58.1068992614746,-103.171997070312,"Wollaston Lake Airport","CA","CZWL"
-12.1883001328,96.8339004517,"Cocos (Keeling) Islands Airport","CC","YPCC"
-4.38575,15.4446,"Ndjili International Airport","CD","FZAA"
-4.32666015625,15.327500343323,"Ndolo Airport","CD","FZAB"
-3.31132006645203,17.3817005157471,"Bandundu Airport","CD","FZBO"
-5.03576993942261,18.7856006622314,"Kikwit Airport","CD","FZCA"
0.0226000007242,18.2887001038,"Mbandaka Airport","CD","FZEA"
4.25321006774902,20.9752998352051,"Gbadolite Airport","CD","FZFD"
3.23536992073,19.7712993622,"Gemena Airport","CD","FZFK"
2.17066,21.496901,"Lisala Airport","CD","FZGA"
0.481638997793,25.3379993439,"Bangoka International Airport","CD","FZIC"
2.82761001586914,27.5883007049561,"Matari Airport","CD","FZJH"
1.56571996212006,30.2208003997803,"Bunia Airport","CD","FZKA"
2.81835007667542,24.7936992645264,"Buta Zega Airport","CD","FZKJ"
-2.30897998809814,28.8087997436523,"Bukavu Kavumu Airport","CD","FZMA"
-1.67080998420715,29.2385005950928,"Goma International Airport","CD","FZNA"
-2.91917991638,25.9153995514,"Kindu Airport","CD","FZOA"
-11.5913000107,27.5308990479,"Lubumbashi International Airport","CD","FZQA"
-10.7658996582031,25.5056991577148,"Kolwezi Airport","CD","FZQM"
-5.87555980682373,29.25,"Kalemie Airport","CD","FZRF"
-8.6420202255249,25.2528991699219,"Kamina Base Airport","CD","FZSA"
-5.90005016327,22.4692001343,"Kananga Airport","CD","FZUA"
-6.12124013901,23.5690002441,"Mbuji Mayi Airport","CD","FZWA"
4.39847993850708,18.5188007354736,"Bangui M'Poko International Airport","CF","FEFF"
4.22158002853394,15.7863998413086,"Berbérati Airport","CF","FEFT"
-4.25169992446899,15.2530002593994,"Maya-Maya Airport","CG","FCBB"
-1.226666,15.91,"Oyo Ollombo Airport","CG","FCOD"
-0.531350016593933,15.9500999450684,"Owando Airport","CG","FCOO"
1.61599004269,16.0379009247,"Ouesso Airport","CG","FCOU"
-4.20635,12.6599,"Ngot Nzoungou Airport","CG","FCPL"
-4.81603002548218,11.8865995407104,"Pointe Noire Airport","CG","FCPP"
47.0839004517,6.79284000397,"Les Eplatures Airport","CH","LSGC"
46.2380981445312,6.10895013809204,"Geneva Cointrin International Airport","CH","LSGG"
46.219166,7.326944,"Sion Airport","CH","LSGS"
46.943901,8.28417,"Alpnach Air Base","CH","LSMA"
47.398601532,8.648229599,"Dübendorf Air Base","CH","LSMD"
47.092444,8.305184,"Emmen Air Base","CH","LSME"
47.0788993835449,9.06482982635498,"Mollis Airport","CH","LSMF"
46.8432,6.91506004333,"Payerne Air Base","CH","LSMP"
46.0042991638,8.9105796814,"Lugano Airport","CH","LSZA"
46.914100647,7.49714994431,"Bern Belp Airport","CH","LSZB"
47.181599,7.41719,"Grenchen Airport","CH","LSZG"
47.464699,8.54917,"Zürich Airport","CH","LSZH"
47.4850006104,9.56077003479,"St Gallen Altenrhein Airport","CH","LSZR"
46.5340995788574,9.88411045074463,"Samedan Airport","CH","LSZS"
5.261390209198,-3.9262900352478,"Port Bouet Airport","CI","DIAP"
7.73880004882812,-5.07366991043091,"Bouaké Airport","CI","DIBK"
6.79280996322632,-6.47318983078003,"Daloa Airport","CI","DIDL"
9.38718032837,-5.55666017532,"Korhogo Airport","CI","DIKO"
7.27206993103027,-7.58735990524292,"Man Airport","CI","DIMN"
4.74671983718872,-6.66082000732422,"San Pedro Airport","CI","DISP"
6.9031701088,-5.36558008194,"Yamoussoukro Airport","CI","DIYO"
-21.2026996613,-159.805999756,"Rarotonga International Airport","CK","NCRG"
-18.348499,-70.338699,"Chacalluta Airport","CL","SCAR"
-27.2611999512,-70.7791976929,"Desierto de Atacama Airport","CL","SCAT"
-45.9160995483398,-71.6894989013672,"Balmaceda Airport","CL","SCBA"
-22.1410999298096,-70.0628967285156,"Barriles Airport","CL","SCBE"
-46.5833015441895,-71.6874008178711,"Chile Chico Airport","CL","SCCC"
-22.4981994628906,-68.9036026000977,"El Loa Airport","CL","SCCF"
-36.5825004577637,-72.0314025878906,"Gral. Bernardo O´Higgins Airport","CL","SCCH"
-53.002602,-70.854599,"Pdte. Carlos Ibañez del Campo Airport","CL","SCCI"
-45.5942001342773,-72.1061019897461,"Teniente Vidal Airport","CL","SCCY"
-20.5352001190186,-70.1812973022461,"Diego Aracena Airport","CL","SCDA"
-33.3930015563965,-70.7857971191406,"Comodoro Arturo Merino Benítez International Airport","CL","SCEL"
-26.3111000061035,-69.7651977539062,"Ricardo García Posada Airport","CL","SCES"
-23.444501,-70.445099,"Andrés Sabella Gálvez International Airport","CL","SCFA"
-53.2537002563477,-70.3191986083984,"Capitan Fuentes Martinez Airport Airport","CL","SCFM"
-54.9310989379883,-67.6262969970703,"Guardiamarina Zañartu Airport","CL","SCGZ"
-47.2438011169434,-72.5884017944336,"Cochrane Airport","CL","SCHR"
-36.772701,-73.063103,"Carriel Sur Airport","CL","SCIE"
-27.1648006439,-109.42199707,"Mataveri Airport","CL","SCIP"
-40.611198425293,-73.0609970092773,"Cañal Bajo Carlos - Hott Siebert Airport","CL","SCJO"
-28.596399307251,-70.7559967041016,"Vallenar Airport","CL","SCLL"
-51.671501159668,-72.5283966064453,"Tte. Julio Gallardo Airport","CL","SCNT"
-38.9259,-72.6515,"La Araucanía Airport","CL","SCQP"
-26.3325004577637,-70.6072998046875,"Chañaral Airport","CL","SCRA"
-34.173698425293,-70.7757034301758,"De La Independencia Airport","CL","SCRG"
-29.916201,-71.199501,"La Florida Airport","CL","SCSE"
-38.766799926758,-72.637100219727,"Maquehue Airport","CL","SCTC"
-41.4388999938965,-73.0940017700195,"El Tepual Airport","CL","SCTE"
-35.377799987793,-71.6016998291016,"Panguilemo Airport","CL","SCTL"
-42.9328002929688,-72.6990966796875,"Chaitén Airport","CL","SCTN"
-38.2456016540527,-72.3486022949219,"Victoria Airport","CL","SCTO"
-25.5643005371094,-70.3759002685547,"Las Breas Airport","CL","SCTT"
-39.6500015259,-73.0860977173,"Pichoy Airport","CL","SCVD"
-32.9496,-71.4786,"Viña del mar Airport","CL","SCVM"
4.08919000626,9.3605298996,"Tiko Airport","CM","FKKC"
4.0060801506,9.71947956085,"Douala International Airport","CM","FKKD"
10.4513998031616,14.257399559021,"Salak Airport","CM","FKKL"
5.63691997528076,10.7508001327515,"Foumban Nkounja Airport","CM","FKKM"
7.35700988769531,13.5592002868652,"N'Gaoundéré Airport","CM","FKKN"
9.33588981628418,13.3701000213623,"Garoua International Airport","CM","FKKR"
5.53692007065,10.3545999527,"Bafoussam Airport","CM","FKKU"
6.03923988342285,10.1225996017456,"Bamenda Airport","CM","FKKV"
3.83604001998901,11.5235004425049,"Yaoundé Airport","CM","FKKY"
3.72255992889404,11.5532999038696,"Yaoundé Nsimalen International Airport","CM","FKYS"
32.53154,102.35224,"Hongyuan Airport","CN","AHJ"
38.74831,105.58858,"Alxa Left Banner Bayanhot Airport","CN","AXF"
31.9983005523682,118.811996459961,"Nanjing Air Base","CN","CN-0002"
39.6699981689453,121.765998840332,"Laohutun Air Base","CN","CN-0003"
39.4509010314941,122.017997741699,"Pulandian Air Base","CN","CN-0004"
40.1491661071777,116.321388244629,"Beijing Shahezhen Air Base","CN","CN-0006"
39.8111114501953,116.708335876465,"Beijing Tongxian Air Base","CN","CN-0007"
38.322758,106.393214,"Yinchuan Hedong International Airport","CN","CN-0010"
37.65722,120.9872,"Duplicate --Yantai Penglai International Airport","CN","CN-0011"
25.737499237061,101.88200378418,"Yuanmou Air Base","CN","CN-0012"
41.260799407959,116.61799621582,"Fengning Air Base","CN","CN-0013"
40.7372016906738,111.228996276855,"Hohhot Air Base","CN","CN-0014"
39.7174987793,113.142997742,"Huairen Air Base","CN","CN-0015"
39.7578010559082,116.125999450684,"Liangxiangzhen Air Base","CN","CN-0016"
38.7811012268066,117.068000793457,"Tangguantun Air Base","CN","CN-0018"
37.4077987670898,111.966003417969,"Wenshui Air Base","CN","CN-0020"
39.3732986450195,117.095001220703,"Yangcun Air Base","CN","CN-0021"
40.503101348877,116.108001708984,"Yongning Air Base","CN","CN-0022"
40.7386016846,114.930000305,"Zhangjiakou Ningyuan Airport","CN","CN-0024"
40.1025009155273,117.887001037598,"Zunhua Air Base","CN","CN-0025"
30.7052993774414,103.949996948242,"Chengdu Air Base","CN","CN-0026"
25.053301,99.168297,"Baoshan Yunduan Airport","CN","CN-0027"
29.4953002929688,106.359001159668,"Chongqing Air Base","CN","CN-0030"
23.7381000519,100.025001526,"Lintsang Airfield","CN","CN-0040"
24.9883003234863,103.641998291016,"Luliang Air Base","CN","CN-0041"
23.395299911499,103.333999633789,"Mengzi Air Base","CN","CN-0043"
30.4899997711182,103.464996337891,"Qionglai Air Base","CN","CN-0045"
29.3519,89.311401,"Shigatse Air Base","CN","CN-0046"
23.7155990600586,103.827003479004,"Wenshan Air Base","CN","CN-0048"
25.4452991485596,100.735000610352,"Xiangyun Midu Air Base","CN","CN-0049"
26.54,101.79852,"Bao'anying Airport","CN","CN-0050"
22.1205997467041,107.125,"Baihe Ning Ming Air Base","CN","CN-0053"
28.0688991547,112.958000183,"Changsha Datuopu Airport/AFB","CN","CN-0055"
30.7985992431641,111.809997558594,"Dangyang Air Base","CN","CN-0056"
18.6921997070312,109.161003112793,"Foluo Northeast Air Base","CN","CN-0057"
23.0832996368,113.069999695,"Foshan Shadi Airport","CN","CN-0061"
23.3307991027832,110.009002685547,"Guiping Mengshu Air Base","CN","CN-0063"
32.540819,114.079141,"Xinyang Minggang Airport","CN","CN-0067"
23.0499992371,114.599998474,"Huizhou Airport","CN","CN-0068"
19.6972007751465,109.725997924805,"Jialaishi Air Base","CN","CN-0069"
26.5872001647949,112.891998291016,"Leiyang Air Base","CN","CN-0071"
18.4944000244141,109.987998962402,"Lingshui Air Base","CN","CN-0072"
34.449507,115.459261,"Shangqiu Air Base","CN","CN-0074"
34.86125,113.729631,"Zhengzhou Air Base","CN","CN-0076"
24.9785995483,113.42099762,"Shaoguan Guitou Airport","CN","CN-0079"
21.3957996368408,110.199996948242,"Suixi Air Base","CN","CN-0080"
26.8568992615,114.736999512,"Jinggangshan Airport","CN","CN-0081"
23.7206001282,106.959999084,"Baise Youjiang Airport","CN","CN-0082"
36.001741,117.63201,"Guodu air base","CN","CN-0083"
30.9543991088867,113.911003112793,"Xiaogan Air Base","CN","CN-0085"
34.5713996887207,118.875,"Baitabu Air Base","CN","CN-0089"
38.4025001525879,116.929000854492,"Cangxian Air Base","CN","CN-0090"
37.5085983276,118.788002014,"Dongying Shengli Airport","CN","CN-0091"
36.3306007385254,120.024002075195,"Jiaozhou/Jiaocheng Air Base","CN","CN-0092"
36.67919921875,116.920997619629,"Jinan Air Base","CN","CN-0093"
37.4900016784668,116.11799621582,"Jiugucheng Air Base","CN","CN-0094"
34.7538986206055,114.338996887207,"Kaifeng Air Base","CN","CN-0095"
36.9636001586914,120.591003417969,"Laiyang Air Base","CN","CN-0096"
33.684700012207,112.890998840332,"Luyang Air Base","CN","CN-0097"
36.1591987609863,120.391998291016,"Qingdao-Cangkou Air Base","CN","CN-0100"
37.2647018432617,122.023002624512,"Wendeng Air Base","CN","CN-0103"
40.5802993774,120.697998047,"Xingcheng Air Base","CN","CN-0104"
34.0588989257812,117.557998657227,"Xuzhou Daguozhang Air Base","CN","CN-0105"
34.230598449707,117.246002197266,"Xuzhou Jiulishan Air Base","CN","CN-0106"
36.5914001464844,118.527000427246,"Yidu Air Base","CN","CN-0109"
36.0275001525879,119.439002990723,"Zhucheng Air Base","CN","CN-0111"
47.7498855591,88.0858078003,"Altay Air Base","CN","CN-0113"
34.5317001342773,107.47200012207,"Baoji Air Base","CN","CN-0114"
36.3367004394531,100.480003356934,"Gonghe Air Base","CN","CN-0117"
35.9178009033203,104.218002319336,"Lanzhou Air Base","CN","CN-0123"
35.3083000183105,103.835998535156,"Ljtao Air Base","CN","CN-0125"
39.5546989440918,98.8842010498047,"Qingshui Air Base","CN","CN-0127"
34.5593986511,105.86000061,"Tianshui Maijishan Airport","CN","CN-0130"
43.4658012390137,87.5322036743164,"Urumqi South Air Base","CN","CN-0132"
42.1814002990723,87.188102722168,"Uxxaktal Air Base","CN","CN-0133"
34.2742004394531,108.265998840332,"Wugong Air Base","CN","CN-0134"
43.9502983093,87.0785980225,"Wulumuqi Air Base","CN","CN-0135"
37.9883003234863,102.567001342773,"Wuwei Air Base","CN","CN-0136"
34.1539001464844,108.598999023438,"Xian Air Base","CN","CN-0137"
25.5482997894287,114.619003295898,"Xincheng Air Base","CN","CN-0138"
43.0772018432617,92.8080978393555,"Yaerbashi Test Range","CN","CN-0139"
34.6439018249512,109.24299621582,"Yanliang Air Base","CN","CN-0140"
38.8018989563,100.675003052,"Zhangye Ganzhou Airport","CN","CN-0143"
30.968599319458,119.731002807617,"Changzing Air Base","CN","CN-0145"
30.2877998352051,122.144996643066,"Daishan Air Base","CN","CN-0146"
31.9094009399414,117.658996582031,"Feidong Air Base","CN","CN-0147"
26.0044002532959,119.311996459961,"Fuzhou Air Base","CN","CN-0149"
25.0261001586914,118.806999206543,"Huian Air Base","CN","CN-0152"
30.3353004455566,120.240997314453,"Jianqiao/Hangzhou Airfield","CN","CN-0153"
30.7066402435303,120.680610656738,"Jiaxing Air Base","CN","CN-0154"
25.5727996826172,119.459999084473,"Longtian/Lung-T'ien Air Base","CN","CN-0158"
29.1131000518799,119.177001953125,"Longyou Air Base","CN","CN-0159"
29.4771995544434,115.802001953125,"Mahuiling Air Base","CN","CN-0161"
28.6355991363525,115.930000305176,"Nanchang New Airfield","CN","CN-0162"
28.4207992553711,115.924003601074,"Nanchang Xiangtang Air Base","CN","CN-0163"
29.9228000640869,121.573997497559,"Ningbo Zhangqiao Air Base","CN","CN-0165"
31.323600769043,121.411003112793,"Shanghai Dachang Air Base","CN","CN-0169"
28.0216999053955,115.551002502441,"Zhangshu Air Base","CN","CN-0182"
43.9053001403809,125.197998046875,"Changchun Air Base","CN","CN-0185"
42.1589012145996,118.842002868652,"Chifeng Air Base","CN","CN-0187"
40.0247,124.286003,"Dandong Airport","CN","CN-0189"
40.4014015197754,99.7893981933594,"Dingxin/Shuangchengzi Air Base","CN","CN-0190"
42.0788993835449,121.662002563477,"Fuxin Air Base","CN","CN-0191"
43.5242004394531,124.786003112793,"Gongzhuling Air Base","CN","CN-0192"
45.5974998474,126.658996582,"Harbin Air Base","CN","CN-0193"
42.5257987976074,123.982002258301,"Kaiyuan Air Base","CN","CN-0197"
45.2593994140625,126.894996643066,"Lalin Air Base","CN","CN-0198"
40.9007987976074,118.680999755859,"Pingquan Air Base","CN","CN-0201"
41.8708000183105,123.439002990723,"Shenyang Beiling Air Base","CN","CN-0204"
41.8224983215332,123.299003601074,"Shenyang Yu Hung Tun Air Base","CN","CN-0206"
43.1568984985352,124.291999816895,"Siping Air Base","CN","CN-0208"
40.298900604248,120.359001159668,"Suizhong Air Base","CN","CN-0209"
38.9122009277344,121.238998413086,"Tuchengzi Air Base","CN","CN-0210"
39.2895011901855,121.761001586914,"Sanshilipu Air Base","CN","CN-JNZ"
45.505278,123.019722,"Baicheng Chang'an Airport","CN","DBC"
34.418066,100.301144,"Golog Maqin Airport","CN","GMQ"
38.012,100.644,"Qilian Airport","CN","HBQ"
33.7908333333,119.125,"Lianshui Airport","CN","HIA"
50.371389,124.1175,"Jiagedaqi Airport","CN","JGD"
29.5133333333,108.831111111,"Qianjiang Wulingshan Airport","CN","JIQ"
42.066944,127.602222,"Changbaishan Airport","CN","NBS"
27.5403,100.7593,"Ninglang Luguhu Airport","CN","NLH"
28.3797,117.9643,"Shangrao Sanqingshan Airport","CN","SQD"
26.4263,117.8336,"Shaxian Airport","CN","SQJ"
37.657222,120.987222,"Yantai Penglai International Airport","CN","YNT"
32.560184,119.717141,"Yangzhou Taizhou Airport","CN","YTY"
29.314,113.278,"Sanhe Airport","CN","YYA"
40.0801010131836,116.584999084473,"Beijing Capital International Airport","CN","ZBAA"
39.509945,116.41092,"Beijing Daxing International Airport","CN","ZBAD"
39.9608,116.257004,"Beijing Xijiao Airport","CN","ZBBB"
41.1225,118.073889,"Chengde Puning Airport","CN","ZBCD"
42.2350006103516,118.907997131348,"Chifeng Airport","CN","ZBCF"
39.666389,119.058889,"Qinhuangdao Beidaihe Airport","CN","ZBDH"
39.49,109.861388889,"Ordos Ejin Horo Airport","CN","ZBDS"
43.4225,112.096667,"Erenhot Saiwusu International Airport","CN","ZBER"
47.3106,119.9117,"Arxan Yi'ershi Airport","CN","ZBES"
36.5258333333,114.425555556,"Handan Airport","CN","ZBHD"
40.851398,111.823997,"Baita International Airport","CN","ZBHH"
45.487222,119.407222,"Holingol Huolinhe Airport","CN","ZBHZ"
49.205002,119.824997,"Hulunbuir Hailar Airport","CN","ZBLA"
36.132629,111.641236,"Linfen Qiaoli Airport","CN","ZBLF"
37.683333,111.142778,"Lüliang Airport","CN","ZBLL"
49.566667,117.33,"Manzhouli Xijiao Airport","CN","ZBMZ"
39.7827987670898,116.388000488281,"Beijing Nanyuan Airport","CN","ZBNY"
40.560001373291,109.997001647949,"Baotou Airport","CN","ZBOW"
38.2807006835938,114.696998596191,"Shijiazhuang Daguocun International Airport","CN","ZBSJ"
39.1244010925,117.346000671,"Tianjin Binhai International Airport","CN","ZBTJ"
43.556702,122.199997,"Tongliao Airport","CN","ZBTL"
41.129722,113.108056,"Ulanqab Jining Airport","CN","ZBUC"
43.915599822998,115.963996887207,"Xilinhot Airport","CN","ZBXH"
37.746898651123,112.627998352051,"Taiyuan Wusu Airport","CN","ZBYN"
40.926,107.7428,"Bayannur Tianjitai Airport","CN","ZBYZ"
47.865833,122.767503,"Chengjisihan Airport","CN","ZBZL"
28.9188995361,111.63999939,"Changde Airport","CN","ZGCD"
27.4411111111,109.7,"Zhijiang Airport","CN","ZGCJ"
23.3924007415771,113.299003601074,"Guangzhou Baiyun International Airport","CN","ZGGG"
28.1891994476,113.220001221,"Changsha Huanghua International Airport","CN","ZGHA"
24.805,107.6997,"Hechi Jinchengjiang Airport","CN","ZGHC"
25.2180995941162,110.039001464844,"Guilin Liangjiang International Airport","CN","ZGKL"
26.338661,111.610043,"Lingling Airport","CN","ZGLG"
22.6082992553711,108.171997070312,"Nanning Wuxu Airport","CN","ZGNN"
23.552,116.5033,"Jieyang Chaoshan International Airport","CN","ZGOW"
22.006399,113.375999,"Zhuhai Jinwan Airport","CN","ZGSD"
26.802,110.642,"Shaoyang Wugang Airport","CN","ZGSY"
22.6392993927002,113.810997009277,"Shenzhen Bao'an International Airport","CN","ZGSZ"
24.2075,109.390999,"Liuzhou Bailian Airport","CN","ZGZH"
21.214399,110.358002,"Zhanjiang Airport","CN","ZGZJ"
34.5196990967,113.841003418,"Zhengzhou Xinzheng International Airport","CN","ZHCC"
32.3894004821777,111.694999694824,"Guangzhou MR Air Base","CN","ZHGH"
30.7838,114.208,"Wuhan Tianhe International Airport","CN","ZHHH"
31.626,110.34,"Shennongjia Hongping Airport","CN","ZHSN"
32.591667,110.907778,"Shiyan Wudangshan Airport","CN","ZHSY"
30.55655,111.479988,"Yichang Sanxia Airport","CN","ZHYC"
19.9349002838135,110.458999633789,"Haikou Meilan International Airport","CN","ZJHK"
19.13824,110.454775,"Qionghai Bo'ao Airport","CN","ZJQH"
18.3029003143311,109.412002563477,"Sanya Phoenix International Airport","CN","ZJSY"
40.1610984802246,94.809196472168,"Dunhuang Airport","CN","ZLDH"
36.4006,94.786102,"Golmud Airport","CN","ZLGM"
36.0788888889,106.216944444,"Guyuan Liupanshan Airport","CN","ZLGY"
38.201984,90.841495,"Huatugou Airport","CN","ZLHX"
35.292778,116.346667,"Jining Qufu Airport","CN","ZLJN"
39.856899,98.3414,"Jiayuguan Airport","CN","ZLJQ"
36.5152015686,103.620002747,"Lanzhou Zhongchuan Airport","CN","ZLLL"
33.788,105.797,"Longnan Chengzhou Airport","CN","ZLLN"
35.799702,107.602997,"Qingyang Airport","CN","ZLQY"
34.376701,109.120003,"Xi'an Xiguan Airport","CN","ZLSN"
34.8105,102.6447,"Gannan Xiahe Airport","CN","ZLXH"
36.5275,102.042999,"Xining Caojiabu Airport","CN","ZLXN"
34.447102,108.751999,"Xi'an Xianyang International Airport","CN","ZLXY"
37.573125,105.154454,"Zhongwei Shapotou Airport","CN","ZLZW"
23.273889,99.373611,"Cangyuan Washan Airport","CN","ZPCW"
25.649401,100.319,"Dali Airport","CN","ZPDL"
27.7936,99.6772,"Diqing Airport","CN","ZPDQ"
21.9738998413086,100.76000213623,"Xishuangbanna Gasa Airport","CN","ZPJH"
22.415833,99.786389,"Lancang Jingmai Airport","CN","ZPJM"
26.6800003052,100.246002197,"Lijiang Airport","CN","ZPLJ"
24.4011,98.5317,"Mangshi Airport","CN","ZPLX"
25.1019444,102.9291667,"Kunming Changshui International Airport","CN","ZPPP"
24.5440006256104,118.127998352051,"Xiamen Gaoqi International Airport","CN","ZSAM"
30.582199,117.050003,"Anqing Tianzhushan Airport","CN","ZSAQ"
32.8477333333,117.320244444,"Bengbu Airport","CN","ZSBB"
28.8649997711182,115.900001525879,"Nanchang Changbei International Airport","CN","ZSCN"
32.882157,115.734364,"Fuyang Xiguan Airport","CN","ZSFY"
25.9351005554199,119.66300201416,"Fuzhou Changle International Airport","CN","ZSFZ"
30.2294998168945,120.43399810791,"Hangzhou Xiaoshan International Airport","CN","ZSHC"
29.3386001587,117.176002502,"Jingdezhen Airport","CN","ZSJD"
36.8572006225586,117.216003417969,"Yaoqiang Airport","CN","ZSJN"
28.965799,118.899002,"Quzhou Airport","CN","ZSJU"
25.6746997833,116.747001648,"Longyan Guanzhishan Airport","CN","ZSLD"
28.5622005462646,121.429000854492,"Huangyan Luqiao Airport","CN","ZSLQ"
29.8267002105713,121.46199798584,"Ningbo Lishe International Airport","CN","ZSNB"
31.742000579834,118.861999511719,"Nanjing Lukou Airport","CN","ZSNJ"
31.7800006866455,117.297996520996,"Hefei Luogang International Airport","CN","ZSOF"
31.1434001922607,121.805000305176,"Shanghai Pudong International Airport","CN","ZSPD"
36.2661018372,120.374000549,"Liuting Airport","CN","ZSQD"
24.7964,118.589996,"Quanzhou Jinjiang International Airport","CN","ZSQZ"
32.257884979248,120.501655578613,"Rugao Air Base","CN","ZSRG"
35.405033,119.324403,"Rizhao Shanzihe Airport","CN","ZSRZ"
31.1979007720947,121.335998535156,"Shanghai Hongqiao International Airport","CN","ZSSS"
31.2631,120.401001,"Suzhou Guangfu Airport","CN","ZSSZ"
29.7332992553711,118.255996704102,"Tunxi International Airport","CN","ZSTX"
36.646702,119.119003,"Weifang Airport","CN","ZSWF"
37.1870994567871,122.228996276855,"Weihai Airport","CN","ZSWH"
31.3906,118.408997,"Wuhu Air Base","CN","ZSWU"
31.4944000244,120.429000854,"Sunan Shuofang International Airport","CN","ZSWX"
27.7019,118.000999,"Nanping Wuyishan Airport","CN","ZSWY"
27.912201,120.851997,"Wenzhou Longwan International Airport","CN","ZSWZ"
34.059056,117.555278,"Xuzhou Guanyin Airport","CN","ZSXZ"
32.5634,119.7198,"Yangzhou Taizhou Airport","CN","ZSYA"
27.8025,114.3062,"Yichun Mingyueshan Airport","CN","ZSYC"
29.3446998596,120.031997681,"Yiwu Airport","CN","ZSYW"
32.1,80.0530555556,"Ngari Gunsa Airport","CN","ZUAL"
26.2605555556,105.873333333,"Anshun Huangguoshu Airport","CN","ZUAS"
30.5536003112793,97.1082992553711,"Qamdo Bangda Airport","CN","ZUBD"
27.267066,105.472097,"Bijie Feixiong Airport","CN","ZUBJ"
29.7192001342773,106.641998291016,"Chongqing Jiangbei International Airport","CN","ZUCK"
29.323056,100.053333,"Daocheng Yading Airport","CN","ZUDC"
32.3911018371582,105.702003479004,"Guangyuan Airport","CN","ZUGU"
26.5384998321533,106.801002502441,"Longdongbao Airport","CN","ZUGY"
32.8533333333,103.682222222,"Jiuzhai Huanglong Airport","CN","ZUJZ"
30.142464,101.73872,"Kangding Airport","CN","ZUKD"
26.972,107.988,"Kaili Airport","CN","ZUKJ"
29.2978000641,90.9119033813,"Lhasa Gonggar Airport","CN","ZULS"
27.81638,106.33268,"Zunyi Maotai Airport","CN","ZUMT"
31.4281005859375,104.740997314453,"Mianyang Airport","CN","ZUMY"
26.32217,109.1499,"Liping Airport","CN","ZUNP"
29.3033008575439,94.3352966308594,"Nyingchi Airport","CN","ZUNZ"
26.609417,104.979,"Liupanshui Yuezhao Airport","CN","ZUPS"
24.9380555556,98.4858333333,"Tengchong Tuofeng Airport","CN","ZUTC"
30.5785007476807,103.946998596191,"Chengdu Shuangliu International Airport","CN","ZUUU"
27.9890995025635,102.18399810791,"Xichang Qingshan Airport","CN","ZUXC"
25.0863888889,104.959444444,"Xingyi Airport","CN","ZUYI"
27.5895,107.0007,"Zunyi Xinzhou Airport","CN","ZUZY"
41.262501,80.291702,"Aksu Airport","CN","ZWAK"
44.895,82.3,"Alashankou Bole (Bortala) airport","CN","ZWAX"
38.233611,85.465556,"Qiemo Yudu Airport","CN","ZWCM"
46.804169,89.512006,"Fuyun Koktokay Airport","CN","ZWFY"
42.8414,93.669197,"Hami Airport","CN","ZWHM"
41.6977996826172,86.1288986206055,"Korla Airport","CN","ZWKL"
48.2223,86.9959,"Kanas Airport","CN","ZWKN"
43.4318,83.3786,"Xinyuan Nalati Airport","CN","ZWNL"
38.974722,88.008333,"Ruoqiang Loulan Airport","CN","ZWRQ"
38.281055,77.075192,"Yeerqiang Airport","CN","ZWSC"
39.5429000854,76.0199966431,"Kashgar Airport","CN","ZWSH"
42.9117012023926,90.2474975585938,"Shanshan Airport","CN","ZWSS"
37.038501739502,79.8648986816406,"Hotan Airport","CN","ZWTN"
43.0308,89.0987,"Turpan Jiaohe Airport","CN","ZWTP"
43.9071006774902,87.4741973876953,"Ürümqi Diwopu International Airport","CN","ZWWW"
41.105301,122.853996,"Anshan Air Base","CN","ZYAS"
43.9962005615,125.684997559,"Longjia Airport","CN","ZYCC"
39.2666666667,122.666944444,"Changhai Airport","CN","ZYCH"
41.538101,120.434998,"Chaoyang Airport","CN","ZYCY"
48.445,126.133,"Wudalianchi Dedu Airport","CN","ZYDU"
48.199494,134.366447,"Dongji Aiport","CN","ZYFY"
45.6234016418457,126.25,"Taiping Airport","CN","ZYHB"
50.1716209371,127.308883667,"Heihe Airport","CN","ZYHE"
46.8433990479,130.464996338,"Jiamusi Airport","CN","ZYJM"
47.11,132.660278,"Jiansanjiang Airport","CN","ZYJS"
45.293,131.193,"Jixi Xingkaihu Airport","CN","ZYJX"
41.1013984680176,121.061996459961,"Jinzhou Airport","CN","ZYJZ"
47.7520555556,129.019125,"Lindu Airport","CN","ZYLD"
32.8363888889,97.0363888889,"Yushu Batang Airport","CN","ZYLS"
44.5241012573,129.569000244,"Mudanjiang Hailang International Airport","CN","ZYMD"
52.9127777778,122.43,"Gu-Lian Airport","CN","ZYMH"
47.2396011352539,123.917999267578,"Qiqihar Sanjiazi Airport","CN","ZYQQ"
44.938114,124.550178,"Songyuan Chaganhu Airport","CN","ZYSQ"
38.9656982421875,121.539001464844,"Zhoushuizi Airport","CN","ZYTL"
42.2538888889,125.703333333,"Tonghua Sanyuanpu Airport","CN","ZYTN"
41.6398010253906,123.483001708984,"Taoxian Airport","CN","ZYTX"
42.8828010559,129.451004028,"Yanji Chaoyangchuan Airport","CN","ZYYJ"
40.542524,122.3586,"Yingkou Lanqi Airport","CN","ZYYK"
41.7844009399414,123.496002197266,"Shenyang Dongta Airport","CN","ZYYY"
4.07607,-73.5627,"Gomez Nino Apiay Air Base","CO","SKAP"
4.45278,-75.7664,"El Eden Airport","CO","SKAR"
0.505228,-76.5008,"Tres De Mayo Airport","CO","SKAS"
9.04554,-73.9749,"Las Flores Airport","CO","SKBC"
7.1265,-73.1848,"Palonegro Airport","CO","SKBG"
4.70159,-74.1469,"El Dorado International Airport","CO","SKBO"
10.8896,-74.7808,"Ernesto Cortissoz International Airport","CO","SKBQ"
6.20292,-77.3947,"José Celestino Mutis Airport","CO","SKBS"
3.81963,-76.9898,"Gerardo Tobar López Airport","CO","SKBU"
7.92757,-72.5115,"Camilo Daza International Airport","CO","SKCC"
10.4424,-75.513,"Rafael Nuñez International Airport","CO","SKCG"
3.54322,-76.3816,"Alfonso Bonilla Aragon International Airport","CO","SKCL"
1.81442,-78.7492,"La Florida Airport","CO","SKCO"
7.96847,-75.1985,"Juan H White Airport","CO","SKCU"
9.40092,-75.6913,"Coveñas Airport","CO","SKCV"
9.33274,-75.2856,"Las Brujas Airport","CO","SKCZ"
7.59647,-74.8089,"El Bagre Airport","CO","SKEB"
7.02433,-73.8068,"Yariguíes Airport","CO","SKEJ"
1.58919,-75.5644,"Gustavo Artunduaga Paredes Airport","CO","SKFL"
4.27624,-74.7967,"Santiago Vila Airport","CO","SKGI"
4.75818,-75.9557,"Santa Ana Airport","CO","SKGO"
2.57013,-77.8986,"Juan Casiano Airport","CO","SKGP"
4.42161,-75.1333,"Perales Airport","CO","SKIB"
0.861925,-77.6718,"San Luis Airport","CO","SKIP"
7.81196,-76.7164,"Antonio Roldan Betancourt Airport","CO","SKLC"
11.2325,-72.4901,"Jorge Isaac Airport","CO","SKLM"
-4.19355,-69.9432,"Alfredo Vásquez Cobo International Airport","CO","SKLT"
6.220549,-75.590582,"Enrique Olaya Herrera Airport","CO","SKMD"
9.28474,-74.8461,"Baracoa Airport","CO","SKMG"
8.82374,-75.8258,"Los Garzones Airport","CO","SKMR"
1.25366,-70.2339,"Fabio Alberto Leon Bentley Airport","CO","SKMU"
5.0296,-75.4647,"La Nubia Airport","CO","SKMZ"
2.95015,-75.294,"Benito Salas Airport","CO","SKNV"
8.31506,-73.3583,"Aguas Claras Airport","CO","SKOC"
6.18472,-67.4932,"German Olano Airport","CO","SKPC"
3.85353,-67.9062,"Obando Airport","CO","SKPD"
4.81267,-75.7395,"Matecaña International Airport","CO","SKPE"
1.85777,-76.0857,"Pitalito Airport","CO","SKPI"
2.4544,-76.6093,"Guillermo León Valencia Airport","CO","SKPP"
5.48361,-74.6574,"German Olano Air Base","CO","SKPQ"
1.39625,-77.2915,"Antonio Narino Airport","CO","SKPS"
13.3569,-81.3583,"El Embrujo Airport","CO","SKPV"
5.87615,-71.8866,"Paz De Ariporo Airport","CO","SKPZ"
5.21256,-74.8836,"Mariquita Airport","CO","SKQU"
6.16454,-75.4231,"Jose Maria Córdova International Airport","CO","SKRG"
11.5262,-72.926,"Almirante Padilla Airport","CO","SKRH"
2.57969,-72.6394,"Jorge E. Gonzalez Torres Airport","CO","SKSJ"
11.1196,-74.2306,"Simón Bolívar International Airport","CO","SKSM"
12.5836,-81.7112,"Gustavo Rojas Pinilla International Airport","CO","SKSP"
2.15217,-74.7663,"Eduardo Falla Solano Airport","CO","SKSV"
5.54138,-73.3445,"Tunja Airport","CO","SKTJ"
6.45108,-71.7603,"Gustavo Vargas Airport","CO","SKTM"
0.7459,-75.234,"Tres Esquinas Air Base","CO","SKTQ"
5.52448,-68.6856,"Marandúa Air Base","CO","SKUA"
7.06888,-70.7369,"Santiago Perez Airport","CO","SKUC"
5.69076,-76.6412,"El Caraño Airport","CO","SKUI"
4.08836,-76.2351,"Heriberto Gíl Martínez Airport","CO","SKUL"
10.435,-73.2495,"Alfonso López Pumarejo Airport","CO","SKVP"
4.16787,-73.6138,"Vanguardia Airport","CO","SKVV"
5.31911,-72.384,"El Yopal Airport","CO","SKYP"
10.42,-83.6095,"Aerotortuguero Airport","CR","MRAO"
9.163949,-83.330171,"Buenos Aires Airport","CR","MRBA"
10.7686996459961,-83.5856018066406,"Barra del Colorado Airport","CR","MRBC"
8.60155963897705,-82.9685974121094,"Coto 47 Airport","CR","MRCC"
8.65400981903076,-83.1821975708008,"Golfito Airport","CR","MRGF"
10.2172002792,-83.7969970703,"Guapiles Airport","CR","MRGP"
10.5933,-85.544403,"Daniel Oduber Quiros International Airport","CR","MRLB"
11.0353002548218,-84.7061004638672,"Los Chiles Airport","CR","MRLC"
9.95796012878418,-83.0220031738281,"Limon International Airport","CR","MRLM"
9.97649002075,-85.6529998779,"Nosara Airport","CR","MRNS"
9.99386024475098,-84.2088012695312,"Juan Santamaria International Airport","CR","MROC"
8.53332996368408,-83.3000030517578,"Puerto Jimenez Airport","CR","MRPJ"
8.95102977752686,-83.4685974121094,"Palmar Sur Airport","CR","MRPM"
9.95705032348633,-84.1398010253906,"Tobias Bolanos International Airport","CR","MRPV"
9.44316005706787,-84.1297988891602,"Quepos Managua Airport","CR","MRQP"
8.82610988616943,-82.9589004516602,"San Vito De Java Airport","CR","MRSV"
10.8922,-85.016197,"Upala Airport","CR","MRUP"
20.3652992248535,-74.5062026977539,"Gustavo Rizo Airport","CU","MUBA"
20.3964004516602,-76.6213989257812,"Carlos Manuel de Cespedes Airport","CU","MUBY"
22.027099609375,-78.7895965576172,"Maximo Gomez Airport","CU","MUCA"
22.4610004425,-78.3283996582,"Jardines Del Rey Airport","CU","MUCC"
22.1499996185303,-80.4141998291016,"Jaime Gonzalez Airport","CU","MUCF"
21.6165008545,-81.5459976196,"Vilo Acuña International Airport","CU","MUCL"
21.4202995300293,-77.8475036621094,"Ignacio Agramonte International Airport","CU","MUCM"
19.9698009490967,-75.8354034423828,"Antonio Maceo International Airport","CU","MUCU"
19.906499862671,-75.207099914551,"Leeward Point Field","CU","MUGM"
20.0853004455566,-75.1583023071289,"Mariana Grajales Airport","CU","MUGT"
22.989200592041,-82.4091033935547,"José Martí International Airport","CU","MUHA"
20.7856006622314,-76.3151016235352,"Frank Pais International Airport","CU","MUHG"
23.124001,-81.301598,"Kawama Airport","CU","MUKW"
22.3360996246338,-83.6418991088867,"La Coloma Airport","CU","MULM"
20.6539001464844,-74.9222030639648,"Orestes Acosta Airport","CU","MUMO"
20.2880992889404,-77.0892028808594,"Sierra Maestra Airport","CU","MUMZ"
22.7560997009277,-81.9208984375,"San Nicolas De Bari Airport","CU","MUNB"
21.8346996307373,-82.7837982177734,"Rafael Cabrera Airport","CU","MUNG"
23.0328006744,-82.5793991089,"Playa Baracoa Airport","CU","MUPB"
22.4214000701904,-83.6783981323242,"Pinar Del Rio Airport","CU","MUPR"
22.4922008514404,-79.943603515625,"Abel Santamaria Airport","CU","MUSC"
22.0953006744385,-84.1520004272461,"San Julian Air Base","CU","MUSJ"
21.6424999237061,-82.9551010131836,"Siguanea Airport","CU","MUSN"
21.7882995605469,-79.997200012207,"Alberto Delgado Airport","CU","MUTD"
23.0344009399414,-81.435302734375,"Juan Gualberto Gomez International Airport","CU","MUVR"
20.9876003265381,-76.9357986450195,"Hermanos Ameijeiras Airport","CU","MUVT"
16.7414,-22.9494,"Amílcar Cabral International Airport","CV","GVAC"
16.1364994049072,-22.8889007568359,"Rabil Airport","CV","GVBA"
15.1559000015259,-23.2136993408203,"Maio Airport","CV","GVMA"
14.9245004653931,-23.4934997558594,"Praia International Airport","CV","GVNP"
16.588399887085,-24.2847003936768,"Preguiça Airport","CV","GVSN"
16.8332004547119,-25.0552997589111,"São Pedro Airport","CV","GVSV"
12.1889,-68.959801,"Hato International Airport","CW","TNCC"
-10.4505996704102,105.690002441406,"Christmas Island Airport","CX","YPXM"
35.235947,33.724358,"Lefkoniko Airport","CY","CY-0002"
35.1547012329102,33.4961013793945,"Ercan International Airport","CY","LCEN"
34.8750991821289,33.6249008178711,"Larnaca International Airport","CY","LCLK"
34.7179985046387,32.4856986999512,"Paphos International Airport","CY","LCPH"
49.9397010803223,15.381799697876,"Čáslav Air Base","CZ","LKCV"
50.1213989257812,14.5436000823975,"Kbely Air Base","CZ","LKKB"
49.0293998718262,17.4396991729736,"Kunovice Airport","CZ","LKKU"
50.2029991149902,12.914999961853,"Karlovy Vary International Airport","CZ","LKKV"
49.675201416016,13.274600028992,"Plzeň-Líně Airport","CZ","LKLN"
49.6963005065918,18.1110992431641,"Ostrava Leos Janáček Airport","CZ","LKMT"
49.1657981872559,16.1249008178711,"Náměšť Air Base","CZ","LKNA"
50.0134010314941,15.7385997772217,"Pardubice Airport","CZ","LKPD"
49.4258003234863,17.4046993255615,"Přerov Air Base","CZ","LKPO"
50.1008,14.26,"Václav Havel Airport Prague","CZ","LKPR"
49.1512985229492,16.6944007873535,"Brno-Tuřany Airport","CZ","LKTB"
50.216599,14.3958,"Vodochody Airport","CZ","LKVO"
50.981945,12.506389,"Altenburg-Nobitz Airport","DE","EDAC"
53.8787002563,14.152299881,"Heringsdorf Airport","DE","EDAH"
52.073612,11.626389,"Magdeburg 'City' Airport","DE","EDBM"
53.6022,13.306,"Neubrandenburg Airport","DE","EDBN"
51.3633346557617,14.9499998092651,"Rothenburg/Görlitz Airport","DE","EDBR"
51.889442,14.531944,"Cottbus-Drewitz Airport","DE","EDCD"
52.380001,13.5225,"Berlin-Schönefeld Airport","DE","EDDB"
51.1328010559082,13.7672004699707,"Dresden Airport","DE","EDDC"
50.9798011779785,10.9581003189087,"Erfurt Airport","DE","EDDE"
50.033333,8.570556,"Frankfurt am Main Airport","DE","EDDF"
52.134601593,7.68483018875,"Münster Osnabrück Airport","DE","EDDG"
53.630401611328,9.9882297515869,"Hamburg Airport","DE","EDDH"
50.8658981323,7.1427397728,"Cologne Bonn Airport","DE","EDDK"
51.289501,6.76678,"Düsseldorf Airport","DE","EDDL"
48.353802,11.7861,"Munich Airport","DE","EDDM"
49.498699,11.078056,"Nuremberg Airport","DE","EDDN"
51.423889,12.236389,"Leipzig/Halle Airport","DE","EDDP"
49.2145996094,7.10950994492,"Saarbrücken Airport","DE","EDDR"
48.6898994446,9.22196006775,"Stuttgart Airport","DE","EDDS"
52.5597,13.2877,"Berlin-Tegel Airport","DE","EDDT"
52.461101532,9.68507957458,"Hannover Airport","DE","EDDV"
53.0475006104,8.78666973114,"Bremen Airport","DE","EDDW"
49.959999,8.645833,"Frankfurt-Egelsbach Airport","DE","EDFE"
49.9487,7.26389,"Frankfurt-Hahn Airport","DE","EDFH"
49.473057,8.514167,"Mannheim-City Airport","DE","EDFM"
49.967499,8.147222,"Mainz-Finthen Airport","DE","EDFZ"
50.991604,10.47973,"Eisenach-Kindel Airport","DE","EDGE"
50.7076988220215,8.08296966552734,"Siegerland Airport","DE","EDGS"
53.5352783203125,9.83555603027344,"Hamburg-Finkenwerder Airport","DE","EDHI"
54.3794441223145,10.1452779769897,"Kiel-Holtenau Airport","DE","EDHK"
53.8054008484,10.7192001343,"Lübeck Blankensee Airport","DE","EDHL"
47.9888000488,10.2395000458,"Memmingen Allgau Airport","DE","EDJA"
51.230278,6.504444,"Mönchengladbach Airport","DE","EDLN"
51.6141014099,8.61631965637,"Paderborn Lippstadt Airport","DE","EDLP"
51.6024017334,6.14216995239,"Weeze Airport","DE","EDLV"
51.5182991028,7.61223983765,"Dortmund Airport","DE","EDLW"
48.425278,10.931667,"Augsburg Airport","DE","EDMA"
48.081402,11.2831,"Oberpfaffenhofen Airport","DE","EDMO"
47.6712989807,9.51148986816,"Friedrichshafen Airport","DE","EDNY"
53.426998,11.7834,"Schwerin Parchim Airport","DE","EDOP"
49.920403,10.914233,"Airport Bamberg-Breitenau","DE","EDQA"
49.985001,11.64,"Bayreuth Airport","DE","EDQD"
50.2886123657227,11.8563890457153,"Hof-Plauen Airport","DE","EDQM"
48.7793998718,8.08049964905,"Karlsruhe Baden-Baden Airport","DE","EDSB"
47.9733314514,8.52222156525,"Donaueschingen-Villingen Airport","DE","EDTD"
48.3693008423,7.82772016525,"Lahr Airport","DE","EDTL"
49.1183319092,9.78388881683,"Adolf Würth Airport","DE","EDTY"
52.000832,12.148611,"Zerbst Airport","DE","EDUZ"
52.319199,10.5561,"Braunschweig-Wolfsburg Airport","DE","EDVE"
51.417273,9.384967,"Kassel-Calden Airport","DE","EDVK"
54.9132003784,8.34047031403,"Westerland Sylt Airport","DE","EDXW"
49.9726982117,6.69250011444,"Spangdahlem Air Base","DE","ETAD"
49.4369010925293,7.60027980804443,"Ramstein Air Base","DE","ETAR"
52.2785,9.08217,"Bückeburg Air Base","DE","ETHB"
52.591202,10.0221,"Celle Army Airfield","DE","ETHC"
51.1146,9.286,"Fritzlar Army Airfield","DE","ETHF"
48.220299,9.91002,"Laupheim Air Base","DE","ETHL"
50.366001,7.31533,"Mendig Airfield","DE","ETHM"
49.391945,9.958889,"Niederstetten Army Air Base","DE","ETHN"
52.919399,10.185827,"Fassberg Air Base","DE","ETHS"
49.6986999511719,11.9401998519897,"Grafenwohr Army Air Field","DE","ETIC"
49.2181015014648,11.8360996246338,"Hohenfels Army Air Field","DE","ETIH"
53.7677001953,8.65849971771,"Nordholz Naval Airbase","DE","ETMN"
52.585556,8.342222,"Diepholz Air Base","DE","ETND"
50.9608,6.04242,"Geilenkirchen Air Base","DE","ETNG"
54.312199,9.53817,"Hohn Air Base","DE","ETNH"
53.9182014465,12.2783002853,"Rostock-Laage Airport","DE","ETNL"
50.8312,6.65817,"Nörvenich Air Base","DE","ETNN"
54.459301,9.51633,"Schleswig Air Base","DE","ETNS"
53.547798,7.66733,"Wittmundhafen Air Base","DE","ETNT"
52.457298,9.42717,"Wunstorf Air Base","DE","ETNW"
50.0498008728027,8.32540035247803,"Wiesbaden Army Airfield","DE","ETOU"
50.1738014221,7.06333017349,"Büchel Air Base","DE","ETSB"
51.767799,13.1677,"Holzdorf Air Base","DE","ETSH"
48.7156982421875,11.5340003967285,"Ingolstadt Manching Airport","DE","ETSI"
48.185504,10.8612,"Lechfeld Air Base","DE","ETSL"
48.710999,11.2115,"Neuburg AFB","DE","ETSN"
11.5473003387451,43.1595001220703,"Djibouti-Ambouli Airport","DJ","HDAM"
56.2999992371,10.6190004349,"Aarhus Airport","DK","EKAH"
55.7402992249,9.15178012848,"Billund Airport","DK","EKBI"
55.617900848389,12.656000137329,"Copenhagen Kastrup Airport","DK","EKCH"
